LATITUDE,LONGITUDE,NAME,STID,CELLS11,CELLS12,CELLS13
41.48362,-120.5615,Alturas,KAAT,54cb90c,54cb90b,54cb90a4
40.97806,-124.10861,"Arcata / Eureka, Arcata Airport",KACV,54d144c,54d144d,54d144dc
38.2075,-122.27944,"Napa, Napa County Airport",KAPC,8085094,8085095,80850944
39.13333,-121.43333,"Marysville, Beale Air Force Base",KBAB,809b5ac,809b5ab,809b5ab4
35.43361,-119.05667,"Bakersfield, Meadows Field Airport",KBFL,80ea42c,80ea42b,80ea42ac
37.37111,-118.35806,"Bishop, Bishop Airport",KBIH,80be3e4,80be3e3,80be3e24
33.61917,-114.71694,"Blythe, Blythe Airport",KBLH,80d1234,80d1233,80d12334
39.27611,-120.70806,"Emigrant Gap, Blue Canyon Nyack Airport",KBLU,809b90c,809b90b,809b90ac
34.19967,-118.36538,Burbank - Bob Hope Airport,KBUR,80c295c,80c295b,80c295b4
35.28333,-116.61667,"Fort Irwin/Barstow, Bicycle Lake Army Airfield",KBYS,80c439c,80c439d,80c439d4
37.99167,-122.05194,"Concord, Buchanan Field",KCCR,808566c,808566f,808566f4
41.78028,-124.23667,"Crescent City, Jack McNamara Field Airport",KCEC,54d065c,54d065d,54d065dc
39.79879,-121.85795,Chico Municipal Airport,KCIC,8082d94,8082d91,8082d90c
34.21667,-119.08333,"Camarillo, Camarillo Airport",KCMA,80e849c,80e8499,80e84984
33.97556,-117.62361,"Chino, Chino Airport",KCNO,80dccb4,80dccb7,80dccb74
34.02355,-118.29122,Los Angeles / USC Campus Downtown,KCQT,80c2c7c,80c2c7f,80c2c7fc
33.13,-117.27583,"Carlsbad, McClellan-Palomar Airport",KCRQ,80dc734,80dc737,80dc7364
32.62611,-116.46833,Campo,KCZZ,80d974c,80d974d,80d974d4
34.85361,-116.78667,"Daggett, Barstow-Daggett Airport",KDAG,80c4f54,80c4f55,80c4f54c
34.918,-117.879,Edwards Air Force Base,KEDW,80c3b54,80c3b57,80c3b574
34.76611,-114.62333,"Needles, Needles Airport",KEED,80ce26c,80ce26b,80ce26b4
40.8098,-124.1602,Eureka WFO,EKA01,54d1554,54d1557,54d15574
36.78,-119.71944,"Fresno, Fresno Air Terminal",KFAT,80945c4,80945c3,80945c24
33.87194,-117.98472,"Fullerton, Fullerton Municipal Airport",KFUL,80dd2bc,80dd2bb,80dd2bbc
33.92361,-118.33194,"Hawthorne, Hawthorne Municipal Airport",KHHR,80c2b64,80c2b67,80c2b674
36.31145,-119.62315,Hanford Municipal Airport,KHJO,8094c4c,8094c4b,8094c4bc
37.66083,-122.11833,"Hayward, Hayward Air Terminal",KHWD,808f914,808f911,808f911c
32.83417,-115.57861,"Imperial, Imperial County Airport",KIPL,80d75e4,80d75e1,80d75e0c
33.93806,-118.38889,"Los Angeles, Los Angeles International Airport",KLAX,80c2b6c,80c2b6d,80c2b6cc
33.81167,-118.14639,"Long Beach, Long Beach Airport",KLGB,80dd324,80dd323,80dd3224
34.66667,-120.46667,"Lompoc, Lompoc Airport",KLPC,80ec194,80ec193,80ec1934
37.69278,-121.81444,"Livermore, Livermore Municipal Airport",KLVK,808fe8c,808fe89,808fe884
36.9851,-120.11064,Madera Municipal Airport,KMAE,8094094,8094097,8094097c
38.66667,-121.4,"Sacramento, McClellan Airfield Airport",KMCC,809ad84,809ad85,809ad85c
37.28306,-120.50778,Merced Regional Airport,KMCE,809142c,8091429,80914294
37.36667,-120.56667,Merced / Castle Air Force Base,KMER,80916ac,80916af,80916afc
38.55996,-121.28397,Sacramento Mather Airport,KMHR,809ac2c,809ac2b,809ac2bc
41.31494,-122.31702,Mount Shasta,KMHS,54cde74,54cde73,54cde72c
35.06667,-118.15,Mojave,KMHV,80c2254,80c2251,80c22504
37.6241,-118.8423,Mammoth Yosemite Airport,KMMH,8096064,8096061,80960614
37.62549,-120.9549,Modesto City-County Airport - Harry Sham Field,KMOD,809054c,809054f,809054f4
36.59047,-121.84875,Monterey Regional Airport,KMRY,808de54,808de51,808de504
32.81444,-117.13639,"San Diego, Montgomery Field",KMYF,80dbffc,80dbffd,80dbffd4
39.09778,-121.56972,"Marysville, Yuba County Airport",KMYV,809b524,809b527,809b5274
33.30472,-117.35389,"Oceanside, Camp Pendleton, Marine Corps Air Station",KNFG,80dc7b4,80dc7b3,80dc7b2c
35.68639,-117.69,"China Lake, Naval Air Facility",KNID,80c113c,80c113b,80c113b4
32.825,-115.66056,"El Centro, Naval Air Facility",KNJK,80d75fc,80d75f9,80d75f8c
32.86833,-117.1425,"San Diego, Miramar MCAS/Mitscher Field Airport",KNKX,80dbff4,80dbff3,80dbff3c
36.30244,-119.93968,Lemoore Naval Air Station - Reeves Field,KNLC,8094bd4,8094bd7,8094bd6c
32.56302,-117.11091,Imperial Beach Naval Outlying Field - Ream Field,KNRS,80d94c4,80d94c7,80d94c74
33.23379,-119.45588,San Nicolas Island Naval Outlying Field,KNSI,80e6354,80e6357,80e6357c
34.12389,-119.12167,"Point Mugu, Naval Air Warfare Center",KNTD,80e8464,80e8461,80e8461c
33.0218,-118.58266,San Clemente Island NALF,KNUC,80dd86c,80dd86b,80dd86a4
37.40583,-122.04806,"Mountain View, Moffett Field",KNUQ,808fb74,808fb71,808fb70c
34.29401,-116.14717,Twentynine Palms SELF Airport,KNXP,80dacc4,80dacc1,80dacc0c
32.69083,-117.20889,"San Diego, North Island, Naval Air Station",KNZY,80deacc,80deac9,80deac8c
37.7178,-122.23294,"Oakland, Metro Oakland International Airport",KOAK,808f844,808f845,808f845c
33.21806,-117.35139,"Oceanside, Oceanside Municipal Airport",KOKB,80dc704,80dc703,80dc702c
34.05316,-117.57685,Ontario International Airport,KONT,80c3354,80c3351,80c33514
39.49436,-121.62223,Oroville Municipal Airport,KOVE,809cb54,809cb53,809cb52c
34.20056,-119.20306,"Oxnard, Oxnard Airport",KOXR,80e84dc,80e84dd,80e84ddc
34.62972,-118.08139,"Palmdale, Palmdale Production Flight Plant",KPMD,80c2574,80c2573,80c25734
35.66941,-120.62912,Paso Robles Municipal Airport,KPRB,80eccf4,80eccf5,80eccf4c
33.82219,-116.50431,Palm Springs Regional Airport,KPSP,80db1cc,80db1c9,80db1c84
36.03333,-119.06667,"Porterville, Porterville Municipal Airport",KPTV,80eac74,80eac77,80eac774
33.95299,-117.43491,Riverside Municipal Airport,KRAL,80dcb14,80dcb13,80dcb13c
40.15056,-122.25222,"Red Bluff, Red Bluff Municipal Airport",KRBL,808283c,808283f,808283f4
40.51461,-122.2977,Redding Municipal Airport,KRDD,54d2eac,54d2ea9,54d2ea94
33.9,-117.25,Riverside / March Air Force Base,KRIV,80dca64,80dca67,80dca664
33.0375,-116.91583,"Ramona, Ramona Airport",KRNM,80dbef4,80dbef7,80dbef6c
38.50674,-121.49597,Sacramento Executive Airport,KSAC,809ace4,809ace3,809ace2c
32.73361,-117.18306,"San Diego, San Diego International-Lindbergh Field",KSAN,80deab4,80deab3,80deab34
34.42611,-119.84361,"Santa Barbara, Santa Barbara Municipal Airport",KSBA,80e93f4,80e93f7,80e93f7c
34.09027,-117.24705,San Bernardino Intl. Airport,KSBD,80dcab4,80dcab5,80dcab44
35.23611,-120.63611,"San Luis Obispo, San Luis Obispo County-Mc Chesney Field",KSBP,80ecf6c,80ecf6b,80ecf6bc
37.88972,-121.22361,"Stockton, Stockton Metropolitan Airport",KSCK,80906b4,80906b7,80906b74
34.74361,-118.72444,Sandberg,KSDB,80e9e0c,80e9e0f,80e9e0f4
32.57528,-116.99306,"San Diego, Brown Field Municipal Airport",KSDM,80d948c,80d948b,80d948a4
32.82738,-116.97369,Gillespie Field Airport,KSEE,80d9584,80d9581,80d9581c
37.61961,-122.36558,"San Francisco, San Francisco International Airport",KSFO,808f77c,808f77f,808f77e4
41.77375,-122.46817,Montague Siskiyou County Airport,KSIY,54ce5a4,54ce5a3,54ce5a34
37.35917,-121.92417,"San Jose, San Jose International Airport",KSJC,808fcbc,808fcb9,808fcb94
33.79628,-118.04179,Los Alamitos Army Airfield,KSLI,80dd2ec,80dd2ed,80dd2edc
38.70071,-121.59479,Sacramento International Airport,KSMF,809b2b4,809b2b7,809b2b64
34.01583,-118.45139,"Santa Monica, Santa Monica Municipal Airport",KSMO,80c2bac,80c2baf,80c2bae4
34.89408,-120.45212,Santa Maria Public Airport/Capt G Allan Hancock Field,KSMX,80ec14c,80ec14b,80ec14bc
33.6798,-117.8674,John Wayne-Orange County Airport,KSNA,80dcdec,80dcdef,80dcdee4
36.66361,-121.60806,"Salinas, Salinas Municipal Airport",KSNS,809207c,8092079,8092079c
38.5,-122.81667,"Santa Rosa, Santa Rosa Sonoma County Airport",KSTS,80843c4,80843c1,80843c1c
38.26667,-121.95,Fairfield / Travis Air Force Base,KSUU,80853e4,80853e5,80853e54
39.31667,-120.13333,Truckee-Tahoe,KTRK,809961c,809961b,809961b4
33.62667,-116.15944,"Palm Springs, Jacqueline Cochran Regional Airport",KTRM,80da594,80da595,80da5944
38.89836,-119.99615,"South Lake Tahoe, Lake Tahoe Airport",KTVL,80998e4,80998e3,80998e34
39.12783,-123.20011,Ukiah Municipal Airport,KUKI,8081644,8081645,80816444
34.72944,-120.57667,"Lompoc, Vandenberg Air Force Base",KVBG,80ec3cc,80ec3cd,80ec3cdc
38.37755,-121.95853,Vacaville Nut Tree Airport,KVCB,808522c,808522d,808522d4
36.31667,-119.4,"Visalia, Visalia Municipal Airport",KVIS,809527c,809527f,809527e4
34.2125,-118.49083,"Van Nuys, Van Nuys Airport",KVNY,80c29a4,80c29a1,80c29a04
34.74123,-118.21251,General Wm J Fox Airfield,KWJF,80c243c,80c2439,80c2438c
41.58528,-120.17139,CEDARVILLE,CEDC,54cbae4,54cbae1,54cbae1c
39.42752,-120.31342,INDEPENDENCE LAKE,ILKC1,809be54,809be51,809be50c
34.446389,-118.1968,ACTON,ATNC1,80c2f14,80c2f15,80c2f154
40.186017,-123.591061,ALDER POINT,ALDC1,54d49a4,54d49a5,54d49a44
39.651617,-122.724533,ALDER SPRINGS,ECKC1,8082384,8082387,80823874
33.555864,-116.674542,ANZA,NZAC1,80dba74,80dba71,80dba714
35.302983,-120.678739,SAN LUIS OBISPO,ARGC1,80ecf04,80ecf03,80ecf03c
36.235481,-121.479881,ARROYO SECO,ASRC1,80927d4,80927d1,80927d1c
41.276808,-121.980569,ASH CREEK,MCCC1,54cdc5c,54cdc5d,54cdc5dc
38.904167,-120.705222,BALD MTN LOC,BDMC1,809bb2c,809bb2b,809bb2a4
39.380747,-121.386228,BANGOR,BNGC1,809ca44,809ca43,809ca424
38.028056,-122.702222,BARNABY,BBEC1,8085bf4,8085bf7,8085bf74
35.881944,-118.075556,BEAR PEAK,BPKC1,80c052c,80c052f,80c052e4
33.551833,-117.572944,BELL CANYON,CAPC1,80dced4,80dced5,80dced44
38.590836,-120.933622,BEN BOLT,BENC1,809af5c,809af5d,809af5d4
37.130936,-122.172606,BEN LOMOND,BNDC1,808e4e4,808e4e3,808e4e24
37.843333,-118.478528,BENTON,BETC1,80bdefc,80bdefd,80bdefd4
34.124861,-118.412569,BEVERLY HILLS,BVRC1,80c2bdc,80c2bdd,80c2bdc4
40.742164,-123.249178,BIG BAR,BGBC1,54d3b6c,54d3b6f,54d3b6ec
37.95,-121.884444,BLACK DIAMOND,PIBC1,808558c,808558b,808558bc
41.054083,-120.337528,BLUE DOOR,BDOC1,54cb5ec,54cb5ef,54cb5efc
40.592075,-121.077947,BOGARD R.S.,BOGC1,54cd2d4,54cd2d5,54cd2d44
38.987356,-123.348464,BOONVILLE,BNVC1,808169c,808169f,808169fc
35.185233,-120.084989,BRANCH MOUNTAIN,BRHC1,80eb864,80eb861,80eb8614
41.675756,-122.599903,BRAZIE RANCH,BZRC1,54ce414,54ce415,54ce4144
37.934167,-122.117778,BRIONES,PLEC1,808563c,8085639,8085638c
38.738364,-122.144686,BROOKS,BKSC1,8084ed4,8084ed1,8084ed14
40.481472,-120.115083,BULL FLAT,BUFC1,809e764,809e767,809e767c
34.208417,-116.621611,BURNS CANYON,BCNC1,80db324,80db327,80db3264
37.553056,-121.843889,CALAVERAS ROAD,PEAC1,808fc4c,808fc49,808fc494
41.299739,-122.825525,CALLAHAN #2,CLNC1,54d1fec,54d1fe9,54d1fe8c
32.721189,-116.464669,CAMERON FIRE STATION,CMNC1,80d9764,80d9767,80d97664
34.35325,-118.418578,CAMP 9,CNIC1,80c28ec,80c28ef,80c28ef4
35.096528,-119.773222,CARRIZO,CAZC1,80ebbfc,80ebbff,80ebbff4
33.445878,-117.419117,CASE SPRINGS,CSPC1,80dc894,80dc891,80dc8904
37.759469,-119.820561,CRANE,CNFC1,8096c2c,8096c2d,8096c2cc
34.186575,-118.719561,CHEESEBORO,CEEC1,80e8274,80e8271,80e82704
40.292608,-121.243939,CHESTER,CESC1,809d6a4,809d6a1,809d6a14
39.589833,-121.635161,OPENSHAW,CICC1,808334c,808334b,808334ac
34.331667,-118.030278,CHILAO,CHOC1,80c2e44,80c2e41,80c2e404
34.806369,-119.013625,CHUCHUPATE,CUUC1,80e9ed4,80e9ed7,80e9ed64
34.1368,-117.707569,CLAREMONT,CMOC1,80c3304,80c3305,80c33044
39.871836,-121.768983,COHASSET,CSTC1,8082d0c,8082d0f,8082d0e4
34.194167,-116.913056,CONVERSE,CVEC1,80c4b34,80c4b35,80c4b34c
40.256833,-124.266028,COOSKIE MOUNTAIN,PTEC1,54d450c,54d4509,54d4509c
39.938944,-122.169733,CORNING,CRGC1,8082ed4,8082ed5,8082ed5c
36.990856,-121.804881,CORRALITOS,CTOC1,808e19c,808e19d,808e19d4
39.018833,-122.411694,COUNTY LINE,WISC1,808380c,808380f,808380fc
41.976389,-123.612222,CRAZY PEAK,CRZC1,54cfe1c,54cfe19,54cfe18c
37.737447,-118.996581,CRESTVIEW,CRVC1,809613c,8096139,8096139c
34.429719,-118.667119,DEL VALLE,DLVC1,80c27fc,80c27ff,80c27ff4
32.857394,-116.622392,DESCANSO,DENC1,80d9634,80d9635,80d96344
41.528394,-120.672544,DEVILS GARDEN,ATSC1,54cb924,54cb923,54cb9224
34.182139,-117.385111,DEVORE,DVOC1,80c34e4,80c34e3,80c34e3c
37.329269,-121.295381,DIABLO GRANDE,DBLC1,8091c7c,8091c7d,8091c7c4
39.303514,-121.11725,READER RANCH,RRRC1,809b634,809b637,809b637c
40.058861,-120.093722,DOYLE,DYLC1,809e9c4,809e9c3,809e9c3c
39.825278,-123.0825,EEL RIVER (MNF),EELC1,8081f84,8081f81,8081f80c
33.647114,-117.412031,EL CARISO,ECSC1,80dc914,80dc913,80dc912c
34.634361,-117.548889,EL MIRAGE,EMRC1,80c374c,80c374d,80c374cc
38.284417,-120.48975,BANNER ROAD,ESPC1,8090a1c,8090a19,8090a19c
36.8837,-119.475719,FANCHER CREEK,FCHC1,8094524,8094525,80945254
34.266111,-116.898889,FAWNSKIN,FWSC1,80c4b3c,80c4b3f,80c4b3fc
32.990306,-116.066972,FISH CREEK MOUNTAINS,FHCC1,80d98b4,80d98b1,80d98b14
35.891161,-118.915594,FOUNTAIN SPRINGS,FTNC1,80ea96c,80ea96d,80ea96dc
33.811139,-117.708361,FREMONT CANYON,FRCC1,80dcc54,80dcc57,80dcc56c
40.505522,-123.343197,FRIEND MTN.,FMOC1,54d39f4,54d39f1,54d39f04
34.592586,-117.168303,APPLE VALLEY 2,GNTC1,80c49d4,80c49d7,80c49d64
40.781694,-120.784372,GRASSHOPPER,GRSC1,54cccfc,54cccfb,54cccfb4
37.834181,-120.503106,GREEN SPRING,GNSC1,8090ddc,8090ddb,8090dda4
36.3885,-121.551594,HASTINGS,CAHC1,809276c,809276d,809276c4
38.735086,-122.837058,HAWKEYE,HWKC1,80840e4,80840e5,80840e5c
39.069711,-120.419886,HELL HOLE,HLLC1,809bcec,809bceb,809bcebc
36.382542,-120.855819,HERNANDEZ,HDZC1,8093aac,8093aa9,8093aa84
39.208897,-122.809989,HIGH GLADE LOOKOUT,HGLC1,8083c3c,8083c3d,8083c3dc
40.623333,-120.477778,HORSE LAKE,HLKC1,809df24,809df27,809df264
35.770667,-115.909417,HORSE THIEF SPRINGS,HTSC1,80c609c,80c609b,80c609ac
36.5625,-117.473611,HUNTER MOUNTAIN,HTRC1,80c0a3c,80c0a3f,80c0a3e4
35.294889,-118.226778,JAWBONE,JWBC1,80c18dc,80c18dd,80c18dcc
41.8019,-122.1097,JUANITA LAKE,JTAC1,54cef2c,54cef29,54cef28c
33.075686,-116.592575,JULIAN,JULC1,80dbd04,80dbd07,80dbd06c
41.332667,-120.472806,JUNIPER CREEK,JPRC1,54cb77c,54cb779,54cb778c
33.708325,-116.716939,KEENWILD,KNWC1,80db0dc,80db0dd,80db0dc4
35.7772,-118.433739,RIVERKERN,KRNC1,80c0334,80c0333,80c03324
36.031139,-120.054833,KETTLEMAN HILLS,KTLC1,8094ac4,8094ac7,8094ac6c
38.861944,-122.417222,KNOXVILLE CREEK,KNXC1,80847cc,80847cf,80847cf4
37.305233,-122.255253,LA HONDA,LAHC1,808faec,808faeb,808faeb4
35.380725,-120.188094,LA PANZA,LPZC1,80ec824,80ec823,80ec8224
40.807106,-121.296506,LADDER BUTTE,LDRC1,54cd22c,54cd229,54cd2284
35.656447,-120.9241,LAS TABLAS,TABC1,80ed2a4,80ed2a3,80ed2a24
37.833889,-122.066944,LAS TRAMPAS,LTRC1,808f8bc,808f8bd,808f8bcc
40.344144,-121.713733,LASSEN LODGE,LSNC1,8082abc,8082abd,8082abd4
40.141667,-120.353333,LAUFMAN,LAFC1,809c324,809c321,809c320c
34.045114,-118.935989,LEO CARRILLO,LCBC1,80e83dc,80e83dd,80e83dc4
38.881031,-121.266689,LINCOLN,LICC1,809b3d4,809b3d5,809b3d54
37.354722,-122.141667,LOS ALTOS,LOAC1,808fb1c,808fb1b,808fb1b4
37.0548,-121.053094,LOS BANOS,SLRC1,809185c,809185b,809185a4
37.204167,-121.950833,LOS GATOS,LSGC1,808e364,808e365,808e365c
34.544397,-119.791286,LOS PRIETOS,LPOC1,80e9424,80e9427,80e94274
34.017792,-116.188569,LOST HORSE,LTHC1,80dae84,80dae83,80dae82c
39.125833,-123.073333,LYONS VALLEY,COWC1,8083df4,8083df7,8083df64
34.061561,-118.645219,MALIBU HILLS,MBUC1,80c2a04,80c2a05,80c2a044
37.817222,-121.778889,MALLORY RIDGE,LVMC1,808ffac,808ffad,808ffacc
40.540114,-121.580164,MANZANITA LAKE,VIOC1,54cd504,54cd505,54cd504c
37.504025,-119.986794,MARIPOSA,MPOC1,8096b74,8096b77,8096b76c
38.690444,-119.774972,MARKLEEVILLE,MKEC1,8099dd4,8099dd5,8099dd44
37.4094,-119.767894,METCALF GAP,MCFC1,809698c,8096989,80969894
35.123167,-115.411306,MID HILLS,MDHC1,80cf9c4,80cf9c7,80cf9c6c
34.390278,-118.0825,MILL CREEK (ANF),MLCC1,80c2e54,80c2e53,80c2e534
34.079842,-117.046761,MILL CREEK (BDF),MMKC1,80db53c,80db53d,80db53dc
35.535861,-118.140333,BIRD SPRINGS PASS,BIJC1,80c1bd4,80c1bd7,80c1bd6c
34.461397,-119.649014,MONTECITO,MTIC1,80e912c,80e912d,80e912dc
38.390064,-120.652403,MOUNT ZION,MTZC1,809a714,809a713,809a713c
32.881217,-116.428803,MT. LAGUNA,MLGC1,80d978c,80d978b,80d978ac
36.843611,-118.265556,OAK CREEK,IDPC1,80bfbf4,80bfbf3,80bfbf34
33.385967,-116.796836,OAK GROVE,OGVC1,80db984,80db981,80db9804
41.838358,-122.850153,OAK KNOLL,OKNC1,54ce4b4,54ce4b3,54ce4b2c
41.006331,-121.984431,OAK MOUNTAIN,OMTC1,54cd994,54cd997,54cd997c
37.865,-122.220833,OAKLAND NORTH,ONOC1,80857dc,80857db,80857dac
37.786111,-122.144722,OAKLAND SOUTH,OKSC1,808f88c,808f88d,808f88cc
35.154278,-117.175694,OPAL MOUNTAIN,OPLC1,80c3f5c,80c3f59,80c3f584
38.735819,-120.241583,OWENS CAMP,OWNC1,809a21c,809a21f,809a21f4
36.727136,-120.765872,PANOCHE ROAD,PCEC1,8093c9c,8093c9d,8093c9d4
36.724167,-118.9425,PARK RIDGE,PRGC1,80956e4,80956e7,80956e74
35.898306,-120.433286,PARKFIELD,PKFC1,80934cc,80934c9,80934c84
40.286083,-122.874689,PATTYMOCUS,PMCC1,54d33e4,54d33e7,54d33e7c
40.246111,-120.642222,PIERCE,PIEC1,809db0c,809db0b,809db0bc
39.474683,-121.202394,PIKE COUNTY LOOKOUT,PKCC1,809c99c,809c99b,809c99bc
38.831681,-121.0092,PILOT HILL,PLTC1,809b024,809b023,809b023c
34.728319,-118.394058,POPPY PARK,PPPC1,80c26c4,80c26c1,80c26c04
32.605861,-116.608822,POTRERO,POTC1,80d96d4,80d96d5,80d96d5c
37.443056,-121.770556,POVERTY,MIPC1,808fd1c,808fd19,808fd19c
37.475,-122.298056,PULGAS,PUGC1,808fa1c,808fa1b,808fa1bc
41.599119,-122.933675,QUARTZ HILL,QTZC1,54ce24c,54ce249,54ce248c
39.973333,-120.941944,QUINCY RD,QYRC1,809cfec,809cfef,809cfee4
33.222222,-116.497461,RANCHITA,RCHC1,80dbcbc,80dbcbf,80dbcbec
34.06075,-114.732278,RICE VALLEY,RVYC1,80d1a8c,80d1a89,80d1a88c
37.501944,-121.735556,ROSE PEAK,RSPC1,808fd0c,808fd0b,808fd0bc
34.543383,-119.184931,ROSE VALLEY,ROVC1,80e9bc4,80e9bc5,80e9bc5c
41.427111,-121.462511,ROUND MOUNTAIN,RNDC1,54cc3ec,54cc3eb,54cc3ea4
34.668569,-117.821839,SADDLEBACK BUTTE,SDLC1,80c3a94,80c3a97,80c3a97c
33.487428,-119.030322,SANTA BARBARA,SBIC1,80e7e84,80e7e81,80e7e814
33.992981,-119.716264,SANTA CRUZ ISLAND,SNCC1,80e8e64,80e8e61,80e8e614
34.126139,-117.947169,SANTA FE DAM,STFC1,80c2d84,80c2d87,80c2d86c
36.348111,-120.600111,SANTA RITA,SRTC1,80930c4,80930c3,80930c3c
38.478483,-122.711797,SANTA ROSA,RSAC1,8084474,8084477,8084477c
33.978686,-120.078778,SANTA ROSA ISLAND,SRIC1,80e8d44,80e8d41,80e8d414
33.518103,-117.229061,SANTA ROSA PLATEAU,SRUC1,80dc814,80dc817,80dc8174
34.435011,-118.513181,SAUGUS,SAUC1,80c287c,80c2879,80c28794
41.301233,-123.129714,SAWYERS BAR,SWBC1,54d1ee4,54d1ee1,54d1ee14
39.183833,-120.884422,SECRET TOWN,SETC1,809b9e4,809b9e3,809b9e2c
36.567072,-118.957875,SHADEQUARTER,SHQC1,809541c,809541f,809541f4
41.071303,-122.369931,SIMS,SMSC1,54cd8b4,54cd8b3,54cd8b34
41.858336,-123.353661,SLATER BUTTE,ATRC1,54cfda4,54cfda3,54cfda24
39.425,-122.977222,SODA CREEK,SOAC1,80822cc,80822c9,80822c94
40.926781,-121.584325,SOLDIER MTN,SDRC1,54cd0ec,54cd0ef,54cd0ee4
41.390069,-123.492672,SOMES BAR,SMBC1,54d1bec,54d1bed,54d1bec4
37.5625,-122.436389,SPRING VALLEY,HSPC1,808f76c,808f76d,808f76cc
35.368278,-117.570444,SQUAW SPRINGS,SQSC1,80c1604,80c1607,80c16064
39.471094,-120.086975,STAMPEDE,SMDC1,8099594,8099597,8099596c
34.206944,-117.760556,TANBARK,TANC1,80c324c,80c324d,80c324c4
39.854214,-122.609903,THOMES CREEK,TCKC1,8082694,8082697,80826974
40.786419,-122.804486,TRINITY CAMP,TCAC1,54d25b4,54d25b3,54d25b2c
33.237011,-117.008592,VALLEY CENTER,VLCC1,80db8dc,80db8df,80db8dec
41.642967,-121.794875,VAN BREMMER,VABC1,54ce9bc,54ce9b9,54ce9b8c
35.665833,-118.056944,WALKER PASS,ONYC1,80c1a5c,80c1a5b,80c1a5ac
34.595833,-118.578611,WARM SPRINGS,WMSC1,80c27a4,80c27a1,80c27a04
41.478925,-122.454625,WEED AIRPORT,WEEC1,54ce72c,54ce72d,54ce72cc
40.305867,-120.903322,WESTWOOD,WWDC1,809d0ac,809d0a9,809d0a84
39.316667,-120.8375,WHITE CLOUD,CISC1,809b834,809b833,809b8334
40.619475,-121.899622,WHITMORE,WITC1,54d2a04,54d2a01,54d2a004
33.984,-118.009431,WHITTIER HILLS,WTHC1,80c2d44,80c2d41,80c2d40c
36.445,-118.703333,WOLVERTON,WVTC1,8095564,8095565,8095564c
37.859417,-119.651667,WWOLF,WWRC1,8096e44,8096e45,8096e45c
40.337447,-123.065622,YOLLA BOLLA,YOBC1,54d36cc,54d36cb,54d36cac
34.124081,-116.408831,YUCCA VALLEY,UCCC1,80dad84,80dad81,80dad80c
37.40715,-119.345853,MINARETS,MTTC1,8095d5c,8095d5f,8095d5ec
33.505361,-115.839694,DOS PALMAS,DPMC1,80da724,80da721,80da7214
36.093453,-118.261081,BLACKROCK,BKRC1,80c0404,80c0405,80c04054
40.441917,-120.626944,HIDDEN VALLEY,HDVC1,809d964,809d967,809d9674
32.973639,-115.1735,CAHUILLA,QCAC1,80d73c4,80d73c1,80d73c14
33.76875,-116.480111,CATHEDRAL CANYON,EDRC1,80db034,80db033,80db033c
33.877147,-117.304072,CLARK,CLHC1,80dca44,80dca45,80dca454
41.774964,-122.951819,COLLINS BALDY,CLBC1,54ce34c,54ce349,54ce348c
39.926944,-122.641944,EAGLE PEAK,EPKC1,80826dc,80826dd,80826dc4
35.871111,-117.918333,FIVE MILE,FMRC1,80c1004,80c1007,80c10074
41.829908,-120.863381,BLUE MOUNTAIN,BMUC1,54cbe04,54cbe03,54cbe03c
40.548514,-123.165133,HAYFORK,HYFC1,54d3a74,54d3a71,54d3a714
41.711667,-121.506389,INDIAN WELL,IDWC1,54cea64,54cea67,54cea664
35.684889,-117.889667,INDIAN WELLS CANYON,IWLC1,80c109c,80c109b,80c109a4
35.971133,-118.540739,JOHNSONDALE,JSNC1,80c0244,80c0247,80c0247c
35.478083,-117.699333,LAURAL MOUNTAIN,LRLC1,80c16fc,80c16f9,80c16f9c
40.463022,-123.523786,MAD RIVER,MDDC1,54d3834,54d3831,54d38314
34.371667,-118.840833,WILEY RIDGE,WLYC1,80e9d2c,80e9d2b,80e9d2b4
34.384194,-116.524,MEANS LAKE,MNLC1,80c4d14,80c4d13,80c4d134
37.054114,-119.372089,MOUNTAIN REST,MTQC1,8095b4c,8095b4f,8095b4f4
41.315336,-122.316561,MT. SHASTA,MSAC1,54cde74,54cde73,54cde72c
37.233069,-119.505847,NORTH FORK,NFRC1,80942dc,80942df,80942dfc
36.175294,-118.701717,OAK OPENING,OORC1,80eaa7c,80eaa7d,80eaa7dc
36.47075,-121.147278,PINNACLES,PCLC1,809244c,809244d,809244c4
39.667958,-123.321292,RODEO VALLEY,RDVC1,8081eec,8081ee9,8081ee9c
41.288072,-120.869647,RUSH CREEK,RSHC1,54cc7c4,54cc7c5,54cc7c5c
32.90775,-114.474028,SQUAW LAKE,SWLC1,80d6924,80d6925,80d6925c
40.915961,-122.434833,SUGARLOAF (SHF),SLFC1,54d270c,54d2709,54d2709c
33.754742,-117.500103,TEMESCAL 2  (CNF),TSCC1,80dcbe4,80dcbe5,80dcbe54
35.886675,-118.648336,UHL,UHLC1,80c027c,80c027d,80c027c4
40.753647,-122.932136,FIVE CENT,WEFC1,54d24e4,54d24e1,54d24e1c
33.878167,-116.953139,HIGHLAND SPRINGS,HSGC1,80db42c,80db42f,80db42e4
39.030833,-123.080556,HOPLAND UC,HPDC1,80815f4,80815f7,80815f7c
33.931833,-116.805278,CABAZON,BAZC1,80db40c,80db409,80db409c
33.949167,-116.657222,WHITEWATER,WWAC1,80db3dc,80db3db,80db3dac
41.622278,-120.161444,SURPRISE VALLEY,SSYC1,54cbb24,54cbb25,54cbb24c
36.697333,-119.018703,PINEHURST,PHRC1,80956d4,80956d1,80956d1c
38.565278,-119.459167,WALKER,WALC1,80977f4,80977f3,80977f2c
32.836425,-116.671547,ALPINE,ANEC1,80d963c,80d9639,80d9638c
39.561944,-120.047778,DOG VALLEY,DOGC1,809950c,809950d,809950c4
34.315989,-117.5037,MORMON ROCK,MNCC1,80c340c,80c340f,80c340e4
37.15111,-119.50528,A.G. WISHON POWERPLANT NEAR NORTH FORK 7SSE,AGWC1,809433c,809433f,809433fc
39.16361,-120.23861,ALPINE MEADOWS,AMBC1,809bd74,809bd75,809bd744
36.12639,-118.30889,BEACH MEADOWS NEAR OLANCHA 20SW (BCH),BCHC1,80c0154,80c0155,80c01554
40.61694,-122.56694,BRANDY CREEK NEAR SHASTA 4WNW,BDYC1,54d2f14,54d2f11,54d2f114
41.085,-122.94333,BIG FLAT NEAR TRINITY CENTER 14WNW  (BFL),BFLC1,54d2184,54d2185,54d21854
38.54694,-121.33778,BRANCH CENTER,BHCC1,809ac34,809ac35,809ac34c
38.45,-120.03306,BLOODS CREEK NEAR BEAR VALLEY 1SE  (BLD),BLCC1,8097564,8097565,80975644
38.37694,-120.19194,BLACK SPRINGS NEAR BIG MEADOWS 5SW  (BLS),BLSC1,8090ab4,8090ab1,8090ab14
37.06694,-119.4,BALD MOUNTAIN NEAR AUBERRY 5E  (BDM),BMOC1,8095b54,8095b53,8095b524
36.56333,-118.345,CRABTREE MEADOWS METEOROLOGICAL STATION NEAR LONEPINE 16WSW (CBT),CBTC1,80bff2c,80bff2f,80bff2f4
41.08306,-122.71694,COFFEE RIDGE NEAR TRINITY CENTER 7N (CFR),CFRC1,54d20fc,54d20fd,54d20fcc
37.41,-119.49,CHILKOOT MEADOW NEAR BASS LAKE 8NE  (CHM),CHMC1,809681c,8096819,80968194
36.47333,-118.46333,CHAGOOPA PLATEAU NEAR MINERAL KING 7E  (CHP),CHPC1,80bff74,80bff75,80bff74c
40.63889,-122.66694,CLEAR CREEK NEAR WHISKEYTOWN 7W,CLCC1,54d2f74,54d2f77,54d2f77c
38.69333,-120.04167,CAPLES LAKE NEAR KIRKWOOD 1E  (CAP),CPLC1,8099f14,8099f17,8099f164
36.77722,-118.42611,CHARLOTTE LAKE NEAR INDEPENDENCE 13W (CRL),CRLC1,80bfc3c,80bfc3b,80bfc3bc
36.2,-118.26806,CASA VIEJA MEADOWS NEAR OLANCHA 15WSW  (CSV),CVMC1,80c06b4,80c06b7,80c06b64
38.19806,-120.36694,CALAVERAS RANGER STATION NEAR AVERY 1S  (CVS),CVSC1,8090bac,8090baf,8090baec
36.48333,-118.17667,COTTONWOOD LAKES NEAR LONE PINE 11SW  (CWD),CWDC1,80bf89c,80bf89d,80bf89c4
38.33194,-119.65306,DEADMAN CREEK NEAR KENNEDY MEADOW 6ENE  (DDM),DDMC1,80976c4,80976c3,80976c34
40.7,-122.1,DIDDY WELLS NEAR REDDING 18SW,DDWC1,54d29cc,54d29cb,54d29cbc
39.3,-120.825,DEER CREEK FOREBAY NEAR DUTCH FLAT 7N  (DRC),DKFC1,809b9cc,809b9cb,809b9cbc
36.90917,-119.08861,BALCH POWERHOUSE NEAR TRIMMER 12E,DNPC1,8095a1c,8095a1b,8095a1ac
39.325,-120.28139,DONNER LAKE NEAR TRUCKEE 5W,DNRC1,809be74,809be77,809be764
39.26389,-120.76667,DRUM POWERHOUSE NEAR BLUE CANYON 4W  (DPH),DPHC1,809b9bc,809b9bd,809b9bcc
37.585,-120.26722,LAKE MCCLURE AT EXCHEQUER DAM NEAR SNELLING 10ENE (EXC),EXQC1,8091314,8091317,8091316c
39.51694,-121.26611,FORBESTOWN 4NNW  (FBS),FBSC1,809cbd4,809cbd7,809cbd7c
38.805,-120.21306,FORNI RIDGE NEAR STRAWBERRY 4W  (FRN),FOIC1,809a214,809a213,809a212c
36.995,-119.69194,FRIANT DAM NEAR FRIANT 1NE  (FRT),FRIC1,8094474,8094473,80944734
38.69167,-121.13,FOLSOM LAKE - DYKE 8,FSLC1,809ae44,809ae47,809ae47c
37.76694,-119.775,GIN FLAT NEAR EL PORTAL 7N (GIN),GFTC1,8096e84,8096e81,8096e80c
39.07306,-120.62861,GREEK STORE NEAR SODA SPRINGS 20SSW  (GKS),GKSC1,809bba4,809bba1,809bba04
38.20417,-119.89306,GIANELLI MEADOW NEAR STRAWBERRY 6E  (GNL),GNLC1,809738c,809738b,809738ac
41.13306,-122.28306,GIRARD RIDGE NEAR CASTELLA 2ESE,GRDC1,54cdf2c,54cdf29,54cdf29c
37.555,-119.23806,GREEN MOUNTAIN NEAR MAMMOTH LAKES 18SW  (GRM),GRMC1,80967a4,80967a7,80967a74
39.91694,-120.645,GRIZZLY RIDGE NEAR PORTOLA 12WNW  (GRZ),GRZC1,809c444,809c445,809c4444
37.27,-119.54306,GOAT MOUNTAIN NEAR OAKHURST 7SE  (GTM),GTMC1,80942ec,80942ef,80942eec
37.465,-119.29,GRAVEYARD MEADOW NEAR BASS LAKE 18NE  (GRV),GVYC1,809678c,809678f,809678f4
40.68306,-122.75,HOADLEY NEAR LEWISTON 3SE,HDLC1,54d257c,54d2579,54d2578c
38.51389,-119.81111,HIGHLAND MEADOW NEAR KIT CARSON 17SE  (HHM),HHMC1,80975fc,80975fd,80975fc4
41.09167,-122.49167,HIGHLAND LAKES NEAR TRINITY CENTER 13NE  (HIG),HIGC1,54d20a4,54d20a7,54d20a74
37.2275,-119.22056,HUNTINGTON LAKE NEAR BIG CREEK 2NE  (HNT),HNTC1,8095c5c,8095c5f,8095c5fc
38.15833,-119.66167,HORSE MEADOWS NEAR PINECREST 19ENE (HRS),HRSC1,8097114,8097111,8097111c
40.9,-122.25,HIRZ NEAR LAKEHEAD 8ESE,HRZC1,54d278c,54d278b,54d278a4
39.28194,-120.52694,HUYSINK NEAR SODA SPRINGS 9SW  (HYS),HYSC1,809beac,809bead,809bead4
37.78,-119.17806,GEM PASS NEAR JUNE LAKE 5W (GEM),JEMC1,809669c,809669d,809669d4
38.03306,-119.87806,LOWER KIBBIE NEAR PINE CREST 12SE (KIB),KIBC1,8097234,8097237,80972364
40.14,-120.715,KETTLE ROCK NEAR TAYLORSVILLE 8NE  (KTL),KRKC1,809dadc,809dad9,809dad8c
37.29833,-119.10333,KAISER POINT NEAR LAKESHORE 4ENE  (KSP),KSPC1,8095c34,8095c31,8095c304
38.925,-120.19694,LAKE LOIS NEAR SOUTH LAKE TAHOE 10W (LOS),LLSC1,809a284,809a285,809a2854
40.86694,-122.38306,LAKESHORE NEAR LAKEHEAD 3S,LSHC1,54d27bc,54d27b9,54d27b9c
37.61,-119.03306,MAMMOTH PASS NEAR MAMMOTH LAKES 4WSW  (MHP),MAMC1,80960cc,80960cd,80960cc4
37.59889,-119.97806,MERCED RIVER NEAR BRICEBURG NEAR MIDPINES 5NW  (MBB),MBBC1,8096c84,8096c87,8096c87c
41.225,-122.81167,MIDDLE BOULDER 3 NEAR CALLAHAN 6S  (MB3),MDBC1,54d2024,54d2021,54d20214
41.19833,-122.525,MUMBO BASIN NEAR DUNSMUIR 13W  (MUM),MUMC1,54cdf9c,54cdf9f,54cdf9ec
37.94806,-120.525,NEW MELONES DAM NEAR SONORA 10SW  (NMS),NMSC1,8090c24,8090c21,8090c204
37.34194,-119.36,NATURE POINT NEAR BASS LAKE 11ENE  (NTP),NTRC1,8095d3c,8095d39,8095d384
37.63611,-119.55111,OSTRANDER LAKE NEAR YOSEMITE VILLAGE 9S (STR),OSTC1,80968c4,80968c5,80968c54
37.25,-119.45806,PECKINPAH NEAR SOUTH FORK 2NE  (PCK),PCKC1,80942d4,80942d7,80942d74
38.04667,-119.66667,PARADISE MEADOW NEAR PINECREST 21ESE (PDS),PDSC1,80971bc,80971b9,80971b8c
40.20917,-121.15694,PRATTVILLE POWERPLANT NEAR ALMANOR (PVL),PLLC1,809d13c,809d139,809d1394
37.40306,-119.52,POISON RIDGE NEAR BASS LAKE 6NNE  (PSR),POSC1,8096824,8096823,80968224
40.99806,-121.74694,PIT #3 POWERPLANT NEAR BURNEY 9NW,PPHC1,54cda0c,54cda0d,54cda0c4
38.23833,-122.63667,PETALUMA - LYNCH CK,PTBC1,8085b44,8085b41,8085b404
41.31333,-122.525,PETERSON FLAT NEAR MOUNT SHASTA 11W  (PET),PTFC1,54cdfd4,54cdfd5,54cdfd4c
36.12167,-118.545,QUAKING ASPEN  (QUA),QUAC1,80c0194,80c0197,80c0196c
38.24333,-119.75833,LOWER RELIEF VALLEY NEAR DARDANELLE 8SSE (REL),RELC1,8097154,8097153,80971534
34.6,-119.2,ROSE VALLEY,RLYC1,80e997c,80e997d,80e997dc
39.13556,-120.94861,BEAR RIVER AT ROLLINS RESERVOIR NEAR COLFAX 2N,ROLC1,809b74c,809b74d,809b74dc
41.02306,-122.885,RED ROCK MOUNTAIN NEAR TRINITY CENTER 10WNW  (RRM),RRMC1,54d2164,54d2165,54d2164c
38.725,-121.21667,ROSEVILLE WATER TRMT PLT,RTPC1,809ae1c,809ae1d,809ae1cc
38.69833,-121.59361,SACRAMENTO METRO AIRPORT,SAPC1,809b2b4,809b2b7,809b2b7c
41.21,-122.14,SAND FLAT NEAR MOUNT SHASTA 4SW  (SDF),SDFC1,54cdea4,54cdea1,54cdea14
39.58306,-122.53306,STONY GORGE RESERVOIR NEAR ELK CREEK 1S (STG),SGEC1,8082524,8082527,8082527c
39.12806,-120.75,SUGAR PINE NEAR FORESTHILL 8NNE,SGPC1,809ba34,809ba31,809ba30c
40.72,-122.41694,SHASTA DAM (SACRAMENTO RIVER) NEAR SUMMIT CITY 2NNW  (SHS),SHDC1,54d28bc,54d28bd,54d28bcc
41.00528,-122.80167,SHIMMY LAKE NEAR TRINITY CENTER 5WNW  (SHM),SHMC1,54d2144,54d2143,54d2143c
38.67833,-120.12,SILVER LAKE NEAR KIT CARSON  (SIL),SILC1,8099f64,8099f67,8099f67c
38.09167,-119.43667,SLIDE CANYON NEAR MONO VILLAGE 5SW (SLI),SLIC1,809700c,809700b,809700b4
38.50167,-119.93667,STANISLAUS MEADOW NEAR TAMARACK 9NE  (SLM),SLMC1,8097584,8097587,8097587c
38.71806,-120.56306,SLY PARK NEAR POLLOCK PINES 3S  (SLP),SLPC1,809a474,809a473,809a4724
41.04611,-122.48111,SLATE CREEK NEAR DUNSMUIR 16SW  (SLT),SLTC1,54d20ac,54d20ad,54d20ad4
38.55528,-121.41833,SACRAMENTO 5ESE,SMTC1,809adac,809adaf,809adaec
40.46,-121.46,SNOW MOUNTAIN NEAR BURNEY 10SSW  (SNM),SNWC1,809d57c,809d57f,809d57e4
37.16833,-118.57056,SOUTH LAKE CABIN NEAR BISHOP 16SSW  (SLK),SOUC1,80be25c,80be25f,80be25fc
38.13306,-120.36694,STANISLAUS POWERHOUSE NEAR HATHAWAY PINES 3S  (SPW),SPWC1,8090b9c,8090b99,8090b994
41.16833,-121.93833,STOUTS MEADOW NEAR MCCLOUD 12ESE  (STM),STMC1,54cdbec,54cdbed,54cdbed4
40.825,-122.66,TRINITY GUARD STATION NEAR TRINITY CENTER 12SSE,TGSC1,54d267c,54d267f,54d267f4
38.44611,-120.48333,TIGER CREEK POWERHOUSE NEAR WEST POINT 3NNE  (TCP),TIGC1,809a0cc,809a0cf,809a0cf4
37.89306,-119.25694,TIOGA PASS-DANA MEADOWS NEAR LEE VINING 9SW (DAN),TIOC1,80965ac,80965af,80965aec
38.03,-120.35306,TELEGRAPH HILL NEAR COLUMBIA 3E  (TLH),TLHC1,8090c64,8090c63,8090c62c
37.165,-119.2,TAMARACK SUMMIT NEAR SHAVER LAKE 9NE  (TMR),TMRC1,8095c7c,8095c79,8095c794
37.87333,-119.35,TUOLUMNE MEADOWS (TUM),TUMC1,809659c,809659d,809659c4
36.36,-118.28833,TUNNEL NEAR CATAGO 15W (TUN),TUNC1,80c0734,80c0735,80c07354
40.91694,-122.81694,TAYLOR RIDGE NEAR WEAVERVILLE 15NNE (TYR),TYRC1,54d2404,54d2405,54d24044
37.18361,-118.93861,UPPER BURNT CORRAL MEADOW NEAR MONO HOT SPRINGS 11SE (UBC),UBCC1,8095934,8095937,80959374
37.38833,-118.90333,VOLCANIC KNOB NEAR BISHOP 28W  (VLC),VKOC1,8095e54,8095e57,8095e57c
37.00694,-118.98389,WISHON DAM POWERPLANT NEAR HUME 15NNW  (WSD),WSHC1,8095994,8095991,8095990c
37.74972,-119.58944,YOSEMITE VALLEY NEAR YOSEMITE VILLAGE 1NNW (YYV),YYVC1,8096f1c,8096f1f,8096f1f4
40.437836,-122.830933,ARBUCKLE BASIN,PLIC1,54d31bc,54d31b9,54d31b9c
40.889286,-123.142514,BACKBONE,BABC1,54d2344,54d2341,54d2341c
35.721667,-118.498889,WOFFORD HEIGHTS,WFHC1,80c1d2c,80c1d29,80c1d294
37.378422,-119.629531,BATTERSON,BSNC1,80969d4,80969d1,80969d1c
39.941647,-120.325289,PNF13 PORTABLE,TR999,809c22c,809c22d,809c22dc
32.739778,-114.884111,BUTTERCUP,BTTC1,80d6fdc,80d6fd9,80d6fd94
40.068656,-121.584,CARPENTER RIDGE,CDEC1,809d34c,809d349,809d348c
37.380242,-120.076967,CATHEYS VALLEY,CVBC1,8096adc,8096adf,8096adfc
38.38,-120.930278,CFA RAWS,CFAC1,809a884,809a887,809a887c
36.787778,-118.656111,CEDAR GROVE,CGVC1,80bfd84,80bfd87,80bfd864
33.818981,-117.573553,CORONA 1,CNAC1,80dcc74,80dcc71,80dcc70c
37.066492,-119.157264,DINKEY,DKYC1,8095bbc,8095bbf,8095bbec
36.962128,-119.175558,FENCE MEADOW,FNWC1,8095a4c,8095a4f,8095a4fc
39.091389,-120.731667,SEEDORCHARD,FSHC1,809ba4c,809ba4d,809ba4c4
36.011753,-121.241681,FORT HUNTER LIGGETT,FHLC1,8092eb4,8092eb3,8092eb3c
41.838281,-123.945344,GASQUET 2,GQEC1,54d014c,54d014f,54d014fc
33.084319,-116.876903,GOOSE VALLEY,GOSC1,80dbe94,80dbe93,80dbe93c
41.047833,-123.671278,HOOPA,HOAC1,54d17bc,54d17b9,54d17b9c
37.015144,-119.5678,HURLEY,PRHC1,8094484,8094485,80944854
38.911889,-122.706314,KONOCTI,KELC1,80838ac,80838ad,80838ac4
39.989167,-121.498717,LNF01 PORTABLE,TR145,809d2e4,809d2e5,809d2e4c
40.6295,-121.290056,LNF04 PORTABLE,TR147,54cd374,54cd373,54cd3724
33.309822,-117.423667,LAS FLORES,LSFC1,80dc644,80dc647,80dc6474
39.352617,-123.601575,MCGUIRES,MCGC1,8081bac,8081bab,8081bab4
39.807417,-122.945111,MENDOCINO PASS,MASC1,80821bc,80821bb,80821bb4
39.308283,-122.9397,MNF02 PORTABLE,TR164,8083d1c,8083d1b,8083d1ac
38.062925,-120.247253,MOUNT ELIZABETH,MOUC1,8090cbc,8090cbd,8090cbd4
37.376419,-119.179267,MOUNT TOM,MMTC1,8095dbc,8095dbd,8095dbcc
35.662611,-118.025472,WALKER PASS EAST,WAPC1,80c1a44,80c1a43,80c1a42c
37.391006,-118.552572,OWENS VALLEY,OVRC1,80be194,80be197,80be196c
33.016656,-116.635442,PINE HILLS,PIHC1,80dbda4,80dbda3,80dbda3c
40.021717,-121.222467,PNF21 PORTABLE,TR180,809d18c,809d18d,809d18d4
40.731222,-120.316583,RAVENDALE,RVDC1,809df9c,809df99,809df98c
40.515792,-122.292175,REDDING,RRAC1,54d2eac,54d2eab,54d2eabc
36.359694,-120.773,MARQUEZ 2011,MRQC1,809306c,809306f,809306e4
37.559825,-118.678406,ROCK CREEK,RCEC1,8095ff4,8095ff7,8095ff7c
39.417222,-122.1825,SAC NWR,NWRC1,80830dc,80830df,80830df4
39.6375,-120.865278,SADDLEBACK,SLEC1,809c62c,809c62f,809c62f4
41.138211,-123.906353,SCHOOLHOUSE,SHUC1,54d16dc,54d16db,54d16dbc
41.605369,-123.084417,KNF95 PORTABLE,TR189,54ce264,54ce263,54ce262c
37.136831,-119.261686,SHAVER,SHVC1,8095c84,8095c83,8095c824
39.367294,-122.572894,STONYFORD,SYWC1,8083bac,8083ba9,8083ba8c
36.91105,-119.306592,TRIMMER,TRMC1,8095aec,8095ae9,8095ae94
40.569167,-122.503056,MULE MOUNTAIN,MMOC1,54d2ee4,54d2ee3,54d2ee3c
33.856361,-116.859972,POPPET FLAT,POPC1,80db6a4,80db6a7,80db6a6c
33.605444,-116.939083,SAGE,HMMC1,80db70c,80db70d,80db70d4
32.600917,-116.841028,OTAY MOUNTAIN,OTYC1,80d941c,80d9419,80d9419c
37.419253,-119.745442,MIAMI,MIAC1,809698c,809698f,809698e4
40.138375,-123.823758,EEL RIVER CAMP,ERCC1,54d492c,54d492d,54d492cc
39.702328,-123.484906,LAYTONVILLE,LAYC1,8081dcc,8081dcf,8081dce4
37.314661,-119.039303,HIGH SIERRA,HSQC1,8095e84,8095e83,8095e82c
40.610514,-122.527314,WHISKEYTOWN HQ#2,OBRC1,54d2f1c,54d2f19,54d2f184
41.097472,-123.635889,BIG HILL,BIIC1,54d179c,54d179b,54d179bc
36.245356,-121.78015,BIG SUR,PPSC1,808d854,808d851,808d8514
36.231178,-118.869025,MILO,MOLC1,80eab24,80eab21,80eab20c
34.473942,-118.761561,TEMESCAL (LPF),TCLC1,80e9d6c,80e9d6b,80e9d6ac
34.734428,-120.006561,FIGUEROA,FGMC1,80ebfd4,80ebfd1,80ebfd14
34.681781,-119.353733,OZENA,OZNC1,80e99cc,80e99cf,80e99cf4
40.001944,-120.915,CASHMAN,CHAC1,809cffc,809cff9,809cff9c
39.143889,-120.508889,DUNCAN,DUCC1,809bc74,809bc77,809bc774
34.318753,-117.013892,BIG PINE FLAT,BPFC1,80c4afc,80c4af9,80c4af8c
35.531892,-118.630581,DEMOCRAT,DEMC1,80c1d84,80c1d85,80c1d84c
34.233889,-117.480278,LYTLE CREEK,LTLC1,80c3464,80c3463,80c3463c
36.129139,-120.620167,CALFIRE PORTABLE 43,TR419,80933dc,80933df,80933dfc
33.740278,-116.841389,CRANSTON,CNSC1,80db6d4,80db6d1,80db6d04
37.182222,-120.793889,SAN LUIS NWR,SLWC1,809170c,809170b,809170ac
34.758653,-120.485867,VANDENBERG,VDBC1,80ec17c,80ec17b,80ec17a4
32.685,-116.973611,SAN MIGUEL,MIGC1,80d95ac,80d95ab,80d95aac
36.410667,-118.809222,CASE MOUNTAIN,CSWC1,8095514,8095511,8095510c
35.70975,-117.972056,BLUE MAX,BMXC1,80c1a64,80c1a63,80c1a634
38.223611,-120.866389,CAMPO SECO,CMAC1,8090804,8090803,8090803c
41.999167,-121.700278,LOWER KLAMATH - FTS,LKNC1,54cecec,54cece9,54cece94
37.543733,-119.839697,JERSEYDALE,JSDC1,8096bec,8096be9,8096be8c
38.271944,-119.289167,BRIDGEPORT,BPOC1,8097a44,8097a45,8097a45c
41.627856,-121.298381,TIMBER MOUNTAIN,TBRC1,54cc04c,54cc049,54cc0484
40.721489,-123.496292,UNDERWOOD,UDWC1,54d3c0c,54d3c09,54d3c084
34.569381,-118.740189,WHITAKER PEAK,WTPC1,80e9d9c,80e9d9d,80e9d9c4
41.289722,-123.8575,NOTCHKO,NTCC1,54d109c,54d1099,54d10984
34.293611,-118.360833,LITTLE TUJUNGA,LTJC1,80c2924,80c2925,80c2924c
40.756153,-120.892125,GORDON,GORC1,54ccd0c,54ccd0d,54ccd0c4
34.445556,-117.851111,VALYERMO,VLYC1,80c31cc,80c31cb,80c31cb4
34.208611,-116.958611,BDF02 PORTABLE,TR782,80c4b2c,80c4b2f,80c4b2f4
34.37915,-117.687714,BIG PINES,BPNC1,80c316c,80c316f,80c316fc
35.35611,-119.04028,Bakersfield-California Avenue,CQ002,80ea6a4,80ea6a1,80ea6a04
32.67639,-115.48333,Calexico-Ethel Street,CQ004,80d7654,80d7655,80d76554
39.18889,-121.99806,Colusa-Sunrise Blvd,CQ005,8083674,8083675,80836754
38.53528,-121.77306,Davis-UCD Campus,CQ007,808528c,808528f,808528fc
35.34583,-118.85056,Edison,CQ008,80ea72c,80ea72b,80ea72a4
39.32722,-121.66861,Gridley,CQ010,808352c,808352f,808352fc
38.34278,-120.76472,Jackson-Clinton Road,CQ011,809a7bc,809a7bd,809a7bd4
37.6425,-120.99361,Modesto-14th Street,CQ012,809053c,809053f,809053f4
35.05028,-118.1475,Mojave,CQ013,80c2254,80c2251,80c2251c
35.43861,-119.01694,Oildale,CQ014,80ea684,80ea687,80ea686c
38.72472,-120.82194,Placerville-Gold Nugget Way,CQ015,809a574,809a575,809a5744
35.64389,-120.65611,Paso Robles,CQ016,80ecc5c,80ecc59,80ecc584
38.74611,-121.26472,Roseville-N Sunrise Blvd,CQ017,809b204,809b201,809b201c
38.56806,-121.49361,Sacramento - 1309 T Street,CQ018,809ad14,809ad13,809ad124
38.20194,-120.68944,San Andreas-Gold Strike Road,CQ019,80909b4,80909b5,80909b5c
37.95167,-121.26889,Stockton-Hazelton,CQ020,809012c,809012b,809012b4
38.94583,-119.96667,South Lake Tahoe-Sandy Way,CQ023,8099904,8099901,80999004
38.81167,-120.0325,Echo Summit,CQ024,80998cc,80998cf,80998cf4
34.9412,-120.4356,Santa Maria - South Broadway,CQ025,80ec6cc,80ec6c9,80ec6c84
37.96889,-120.38667,Sonora - Barretta Street,CQ026,8090c5c,8090c5b,8090c5b4
36.33278,-119.29083,Visalia,CQ027,80952f4,80952f7,80952f64
39.13889,-121.61917,Yuba City,CQ029,809b534,809b535,809b534c
34.271111,-118.1525,CLEAR CREEK,CEKC1,80c2e8c,80c2e8f,80c2e8e4
35.8644,-120.802981,BRADLEY,RBYC1,80932ec,80932ed,80932ecc
36.842203,-121.362158,HOLLISTER,HSEC1,80921dc,80921df,80921de4
38.345872,-120.229519,COTTAGE,STUC1,8090abc,8090abf,8090abf4
39.988061,-120.477592,COYOTE,CYVC1,809c39c,809c39b,809c39b4
37.990556,-122.644722,WOODACRE,WDAC1,808595c,808595f,808595ec
39.70861,-121.61722,Paradise - Airport,CQ030,809cd2c,809cd2d,809cd2d4
33.63028,-117.675,Mission Viejo,CQ042,80dce94,80dce91,80dce90c
33.81944,-116.49,Palm Springs-Fire Station,CQ044,80db1cc,80db1cf,80db1cf4
34.00056,-117.41528,Riverside-Rubidoux,CQ045,80dcb3c,80dcb3d,80dcb3cc
33.78889,-117.22778,Perris,CQ046,80dca1c,80dca1d,80dca1d4
33.70833,-116.21583,Indio-Jackson Street,CQ047,80daf7c,80daf79,80daf794
33.67639,-117.33083,Lake Elsinore-W Flint Street,CQ048,80dc99c,80dc999,80dc998c
33.92077,-116.85841,Banning-Airport,CQ050,80db414,80db411,80db4114
38.61389,-121.36833,Sacramento-Del Paso Manor,CQ052,809adbc,809adbf,809adbe4
38.30306,-121.42028,Elk Grove - Bruceville Road,CQ053,809ab9c,809ab99,809ab98c
38.68389,-121.16361,Folsom-Natoma Street,CQ054,809ae3c,809ae3f,809ae3fc
34.10389,-117.62917,Upland,CQ055,80c336c,80c336b,80c336a4
34.24139,-117.27556,Lake Gregory,CQ056,80c350c,80c350d,80c350cc
34.10056,-117.49222,Fontana-Arrow Highway,CQ057,80c34bc,80c34bb,80c34bb4
34.10667,-117.27361,San Bernardino,CQ058,80c3534,80c3535,80c35354
36.99972,-121.57528,Gilroy-9th Street,CQ060,8091e3c,8091e3b,8091e3b4
37.07944,-121.6,San Martin,CQ061,8091e04,8091e07,8091e06c
38.1025,-122.23806,Vallejo,CQ062,8085734,8085731,8085730c
37.69389,-121.79861,Livermore - Rincon,CQ065,808fe64,808fe63,808fe634
34.13611,-117.92389,Azusa,CQ066,80c327c,80c3279,80c3278c
34.06694,-118.22667,Los Angeles-North Main Street,CQ070,80c2c64,80c2c67,80c2c664
34.38361,-118.52556,Santa Clarita-Placerita,CQ071,80c2864,80c2867,80c28664
34.14444,-117.85,Glendora-Laurel,CQ073,80c3264,80c3261,80c32614
40.250742,-123.319803,RUTH,RLKC1,54d366c,54d366b,54d366ac
39.735908,-121.488983,JARBO GAP,JBGC1,809cd04,809cd05,809cd04c
38.626092,-120.527853,STEELY FORK,GZFC1,809a154,809a155,809a154c
33.930489,-116.949906,BEAUMONT,BNTC1,80db44c,80db449,80db4484
34.408175,-119.371244,CASITAS,CSVC1,80e9a64,80e9a63,80e9a634
35.0446,-116.07818,BALCH,UP033,80c5a04,80c5a07,80c5a07c
35.25378,-115.47925,CIMA,UP034,80cf79c,80cf79f,80cf79fc
34.99548,-115.68367,KELSO,UP071,80c57d4,80c57d7,80c57d74
35.41411,-115.26002,MOORE,UP165,80cf12c,80cf12f,80cf12ec
35.0424,-116.39645,DUNN,UP178,80c5ab4,80c5ab5,80c5ab5c
34.96707,-116.62858,MANIX,UP240,80c459c,80c459d,80c459c4
34.86334,-118.17267,WA6TK Rosamond,AP156,80c238c,80c2389,80c2389c
36.70823,-121.61278,N6TBQ Salinas,AP200,809200c,809200b,809200b4
40.44038,-122.24333,N6RZR-2 Anderson,AP525,54d2c6c,54d2c6d,54d2c6d4
36.98217,-122.01533,KE6AFE Santa Cruz,AP803,808e404,808e401,808e401c
34.60217,-120.09467,KB6OQJ Santa Ynez,AP901,80e953c,80e9539,80e9538c
34.56503,-118.1077,N6HGA-1 Palmdale,AP902,80c257c,80c257f,80c257f4
34.36833,-117.40817,W6MAF Hesperia,AP904,80c342c,80c342f,80c342f4
32.89,-117.25,W9IF-4 Torrey Pines Glider,AP907,80dc06c,80dc069,80dc0694
38.03317,-121.34733,CW0136 Stockton,C0136,80900bc,80900bf,80900be4
33.7476,-118.11124,CW0181 Seal Beach,C0181,80dd2fc,80dd2ff,80dd2fe4
35.1505,-118.51761,CW0464 Tehachapi,C0464,80c1f9c,80c1f9b,80c1f9bc
41.04207,-123.87562,CW0570 Blue Lake,C0570,54d1664,54d1661,54d16604
38.9561,-123.5449,CW0622 Manchester,C0622,8081164,8081167,80811664
34.177,-118.5988,CW0623 Woodland Hills,C0623,80c29ec,80c29eb,80c29ea4
33.92101,-118.05438,CW0645 Whittier,C0645,80c2d34,80c2d33,80c2d324
39.01617,-121.04283,CW0713 Auburn,C0713,809b0e4,809b0e7,809b0e7c
35.14642,-118.49858,CW1020 Tehachapi,C1020,80c1f9c,80c1f9d,80c1f9cc
38.407833,-120.155917,STF02 PORTABLE,POUC1,8097554,8097553,8097552c
37.784769,-118.982822,INF05 PORTABLE,TS037,8096144,8096145,80961444
38.039444,-122.57,BIG ROCK,NBRC1,8085bd4,8085bd7,8085bd6c
37.614194,-118.674306,INF04 PORTABLE,TS042,8096004,8096001,80960004
37.788333,-121.734722,LOS VAQUEROS,VAQC1,808fe44,808fe47,808fe464
39.399528,-120.211611,TNF02 PORTABLE,TS052,809be14,809be17,809be174
34.194219,-118.2134,SAN RAFAEL HILLS,SRXC1,80c2c1c,80c2c1f,80c2c1fc
33.83039,-118.04743,KB6CYS Cypress,AR144,80dd2c4,80dd2c3,80dd2c24
37.00214,-121.9363,W6TQP Soquel,AR172,808e3e4,808e3e3,808e3e2c
34.20434,-118.13818,WB6YPF Altadena,AR180,80c2c2c,80c2c29,80c2c294
39.2308,-120.984,CW1397 Nevada City,C1397,809b774,809b773,809b772c
34.22336,-116.40951,N6GIW Landers,AR190,80dad5c,80dad5f,80dad5fc
39.32556,-120.36667,CENTRAL SIERRA SNOW LAB,CSSL,809be84,809be85,809be85c
34.290583,-117.2135,ROCK CAMP,RCPC1,80c3584,80c3583,80c35834
34.45833,-119.81117,FW3082 Goleta,F3082,80e9404,80e9403,80e9403c
33.672,-117.97117,CW1521 Huntington Beach,C1521,80dd20c,80dd20d,80dd20dc
37.42917,-119.82833,CW1522 Mariposa,C1522,8096a2c,8096a2f,8096a2e4
33.792,-116.478,AA6HF Palm Springs,AR304,80db1cc,80db1cd,80db1cd4
34.17099,-118.3334,W6KL Burbank,AR307,80c2954,80c2957,80c29564
37.0022,-121.93619,WA6BAY-1 Soquel,AR312,808e3e4,808e3e3,808e3e2c
37.21833,-121.85167,WB6AHC-1 San Jose,AR313,808e31c,808e31b,808e31ac
41.223064,-124.053897,WESTSIDE,WEDC1,54d1114,54d1117,54d1117c
37.4347,-122.2063,K6DJR W.Menlo Park,AR321,808fa4c,808fa4f,808fa4ec
34.0158,-117.0262,CW1772 Yucaipa,C1772,80db504,80db505,80db505c
38.3803,-122.8242,KF6YUA Sebastopol,AR323,808430c,808430d,808430c4
37.27471,-122.02295,CW1792 Saratoga,C1792,808e4ac,808e4ad,808e4acc
34.09755,-116.31766,CW1828 Joshua Tree,C1828,80dadbc,80dadbd,80dadbdc
37.13962,-122.12671,CW1844 Boulder Creek,C1844,808e4ec,808e4ef,808e4efc
37.23637,-121.88749,CW0234 San Jose,C0234,808e314,808e315,808e315c
37.7322,-121.4297,CW1892 Tracy,C1892,80903d4,80903d3,80903d24
34.42833,-118.48117,CW1909 Santa Clarita,C1909,80c2884,80c2887,80c28874
37.927778,-122.587222,MIDDLE PEAK,MDEC1,8085914,8085911,8085911c
41.58694,-121.61306,MEDICINE LAKE NEAR TUELARE 26SSW  (MED),MDCC1,54cc204,54cc205,54cc2054
37.495,-119.98583,MARIPOSA R S (CDF),MRIC1,8096b74,8096b75,8096b744
41.13,-122.07111,MCCLOUD DAM POWERPLANT NEAR MCCLOUD 9SSE,MCUC1,54cd95c,54cd95b,54cd95ac
39.82611,-123.08306,EEL RIVER RANGER STATION NEAR COVELO 9ENE (CLO),COVC1,8081f84,8081f81,8081f80c
40.35,-122.45,DAVIS RANCH NEAR COTTONWOOD 9WSW,DVRC1,54d2d94,54d2d97,54d2d97c
40.57306,-122.415,REDDING FIRE STATION AT REDDING,RFSC1,54d2ec4,54d2ec5,54d2ec54
40.31694,-122.88111,COTTONWOOD NEAR PLATINA 7WSW,CTNC1,54d33dc,54d33df,54d33df4
40.65667,-122.525,SOUTH FORK MOUNTAIN NEAR REDDING 8NW,SFKC1,54d2f44,54d2f47,54d2f47c
37.83778,-119.45,TENAYA LAKE NEAR YOSEMITE VILLAGE 10NE (TNY),SFTC1,8096f7c,8096f7b,8096f7bc
34.015056,-119.363169,ANACAPA ISLAND,ANIC1,80e8594,80e8591,80e8591c
34.53695,-118.102331,LAKE PALMDALE,LPDC1,80c2f84,80c2f81,80c2f81c
35.453625,-118.595186,BRECKENRIDGE,BKGC1,80c1dec,80c1de9,80c1de94
41.83095,-123.876503,CAMP SIX,CSXC1,54d015c,54d015f,54d015e4
38.0425,-122.795833,OLEMA VALLEY,OVYC1,8085c6c,8085c6b,8085c6b4
32.8322,-116.8138,CW2462 Alpine,C2462,80d95e4,80d95e3,80d95e34
33.352069,-116.862731,PALOMAR,PAMC1,80db974,80db977,80db976c
32.892,-116.4199,Mount Laguna,HP001,80d97f4,80d97f5,80d97f54
33.816944,-117.463611,LAKE MATHEWS,MHEC1,80dcb94,80dcb95,80dcb95c
36.93944,-121.78889,"Watsonville, Watsonville Municipal Airport",KWVI,808e1a4,808e1a7,808e1a6c
35.34661,-119.10004,CAL STATE U BAKERSFIELD,CSBFL,80ea414,80ea417,80ea417c
32.94533,-117.245,N6NKF Del Mar,AR568,80dc064,80dc061,80dc061c
37.29643,-121.95549,CW2750 San Jose,C2750,808e354,808e353,808e352c
34.57533,-117.18619,APPLEVALLEY,KAPV,80c362c,80c3629,80c3628c
38.95535,-121.08636,Auburn Municipal Airport,KAUN,809b104,809b103,809b1024
33.40421,-118.41456,Avalon Catalina Airport,KAVX,80dd6ec,80dd6eb,80dd6eb4
36.73096,-119.81465,Fresno Chandler Executive Airport,KFCH,809460c,809460d,809460c4
34.60694,-120.07556,"Santa Ynez, Santa Ynez Airport",KIZA,80e953c,80e953f,80e953fc
35.444508,-118.278825,PIUTES,PIVC1,80c1954,80c1953,80c19524
32.8375,-117.0803,CW2735 San Diego,C2735,80dbfe4,80dbfe1,80dbfe0c
34.640833,-118.414167,GRASS MOUNTAIN,GMTC1,80c26f4,80c26f5,80c26f5c
37.91583,-122.03583,K6BMD-9 Walnut Creek,AR638,8085604,8085605,8085604c
37.39439,-122.10646,CW2978 Los Altos,C2978,808fb0c,808fb0b,808fb0bc
33.86317,-118.36344,CW2995 Redondo Beach,C2995,80c2b4c,80c2b4f,80c2b4ec
34.19417,-116.4,CW2900 Yucca Valley,C2900,80dad64,80dad63,80dad63c
39.75367,-123.20717,CW3111 Covelo,C3111,8081f0c,8081f09,8081f08c
37.59633,-122.06967,CW3109 Union City,C3109,808f95c,808f95d,808f95c4
37.91633,-120.283,CW3161 Sonora,C3161,8090d1c,8090d1b,8090d1bc
33.70762,-118.03009,WD6AWP Huntington Beach,AR684,80dd244,80dd243,80dd242c
32.8148,-117.0531,CW3287 San Diego,C3287,80d9564,80d9563,80d95624
39.359133,-122.6705,MNF03 PORTABLE,TS378,8083b74,8083b77,8083b77c
37.51133,-122.48733,CW3295 Half Moon Bay,C3295,808f73c,808f73d,808f73cc
33.82401,-116.39636,CW2285 Thousand Palms,C2285,80dae2c,80dae2b,80dae2bc
38.353786,-120.786719,ARB2 PORTABLE,ANUC1,809a7bc,809a7bf,809a7bec
38.5608,-121.507,ARB3 PORTABLE,TS388,809ad14,809ad11,809ad114
38.5685,-121.4933,ARB4 PORTABLE,TS389,809ad14,809ad13,809ad124
38.815719,-122.682339,ARB1 PORTABLE,TS392,8084734,8084737,8084737c
36.48194,-121.73333,Carmel Valley-Ford Rd,CQ076,808df3c,808df39,808df39c
34.05889,-117.14778,Redlands-Dearborn,CQ078,80db55c,80db55d,80db55c4
34.13278,-118.12722,Pasadena-S Wilson Ave,CQ080,80c2c4c,80c2c4b,80c2c4a4
33.92528,-117.95222,La Habra,CQ081,80dd2ac,80dd2ad,80dd2acc
35.36639,-120.84278,Morro Bay,CQ083,80ece14,80ece17,80ece174
34.19917,-118.53278,Reseda,CQ088,80c299c,80c2999,80c29984
32.84222,-116.76833,Alpine-Victoria Dr,CQ089,80d960c,80d960f,80d960f4
34.05056,-118.45667,West Los Angeles-VA Hospital,CQ090,80c2bb4,80c2bb7,80c2bb64
32.79222,-115.56306,El Centro-9th Street,CQ091,80d7674,80d7673,80d76734
32.63139,-117.05917,Chula Vista,CQ093,80d94e4,80d94e7,80d94e6c
36.84333,-121.36222,Hollister-Fairview Rd,CQ095,80921dc,80921df,80921de4
34.41639,-117.28556,Hesperia-Olive Street,CQ096,80c35dc,80c35df,80c35df4
35.12389,-120.63222,Grover City-Lesage Dr,CQ097,80ec594,80ec593,80ec593c
40.55139,-122.38083,Redding-Health Dept Roof,CQ098,54d2ec4,54d2ec7,54d2ec7c
34.425,-117.58972,Phelan-Beekley Rd & Phelan Rd,CQ099,80c314c,80c3149,80c31484
34.06667,-117.75,Pomona,CQ101,80c32e4,80c32e1,80c32e0c
34.89389,-117.02444,Barstow,CQ103,80c47cc,80c47c9,80c47c84
34.48917,-120.04694,Las Flores Canyon #1,CQ118,80e94ec,80e94e9,80e94e8c
33.0325,-115.62361,Westmorland-W 1st Street,CQ121,80d7564,80d7565,80d7565c
40.26222,-122.09278,Tuscan Butte,CQ124,80829dc,80829df,80829dfc
33.21361,-115.54528,Niland-English Rd,CQ125,80d0ac4,80d0ac7,80d0ac64
33.21694,-117.39611,Camp Pendleton,CQ126,80dc6fc,80dc6fb,80dc6fbc
36.98389,-121.99083,Santa Cruz-2544 Soquel Ave,CQ127,808e3fc,808e3ff,808e3ffc
38.49444,-121.21111,Sloughhouse,CQ129,809aebc,809aebb,809aebb4
35.77444,-117.37222,Trona-Athol & Telegraph,CQ130,80c139c,80c139f,80c139e4
38.66056,-121.73056,Woodland-Gibson Rd,CQ132,8084d6c,8084d6b,8084d6ac
35.03167,-120.50083,Nipomo-Regional Park,CQ133,80ec684,80ec685,80ec6844
38.22722,-122.07556,Fairfield-Chadbourne Rd,CQ138,8085144,8085147,8085147c
39.9338,-122.461,Sonoma Baylds,CQ140,808266c,808266b,808266a4
38.1885,-121.7056,Rio Vista,CQ141,80854c4,80854c3,80854c34
37.697,-121.9123,Pleasanton,CQ142,808febc,808febf,808febfc
36.69417,-121.62333,Salinas HS,CQ145,8092074,8092075,80920754
34.51083,-117.32556,Victorville-14306 Park Ave,CQ146,80c365c,80c365d,80c365cc
34.66944,-118.13056,Lancaster-43301 Division St,CQ148,80c25ac,80c25a9,80c25a8c
34.42778,-119.69083,Santa Barbara-700 Canon Perdido,CQ149,80e913c,80e9139,80e91384
33.83056,-117.93861,Anaheim-Pampas Ln,CQ153,80dd29c,80dd29d,80dd29c4
38.35667,-121.95,Vacaville-Ulatis Dr,CQ154,80853d4,80853d3,80853d24
34.23938,-117.23947,WA6TJQ Twin Peaks,AR725,80c3574,80c3571,80c3571c
38.518333,-120.227722,ENF02 PORTABLE,TS445,809a03c,809a03b,809a03bc
33.02051,-116.88911,KD6RSQ Ramona,AR771,80dbe64,80dbe61,80dbe604
38.40177,-122.8283,CW3627 Sebastopol,C3627,808430c,808430b,808430a4
38.44496,-122.68885,CW3628 Santa Rosa,C3628,8084484,8084487,80844874
37.10054,-121.90387,N2RDT Los Gatos,AR778,808e394,808e395,808e395c
38.8886,-121.0,Cool-Highway 193,CQ167,809b044,809b041,809b040c
33.838,-118.31417,W6AHM Torrance,AR786,80dd4ac,80dd4ab,80dd4ab4
34.49883,-117.321,K7GIL Victorville,AR745,80c3664,80c3667,80c3667c
37.5447,-119.8417,Jerseydale-6440 Jerseydale,CQ168,8096bec,8096bef,8096bef4
38.5117,-122.9988,KF6TYS Guerneville,AR798,80841f4,80841f5,80841f4c
33.78167,-118.36133,CW3786 Rolling Hills Estates,C3786,80dd4bc,80dd4bb,80dd4bbc
37.05867,-120.808,K6TJS Los Banos,AR808,80917ec,80917e9,80917e84
33.53193,-117.14397,CW3862 Temecula,C3862,80db7e4,80db7e7,80db7e6c
37.962,-122.00783,CW3884 Concord,C3884,808560c,808560b,808560bc
38.6447,-122.88217,W6HN Healdsburg,AR834,808410c,8084109,8084108c
37.97633,-122.305,CW3879 El Sobrante,C3879,8085774,8085777,80857774
33.9077,-117.7837,CW3917 Yorba Linda,C3917,80dcd24,80dcd23,80dcd234
34.42483,-116.87983,KC6JTN-3 Lucerne Valley,AR854,80c4b94,80c4b95,80c4b95c
38.41935,-121.36029,KJ6MC Elk Grove,AR866,809ac74,809ac73,809ac734
35.3917,-119.10024,CW4038 Bakersfield,C4038,80ea434,80ea431,80ea4304
41.295317,-120.314022,BEAR FLAT,FLAC1,54cb714,54cb717,54cb717c
33.73495,-116.87961,CW4086 Hemet,C4086,80db6dc,80db6dd,80db6dd4
37.32415,-121.98062,CW4115 Santa Clara,C4115,808fcac,808fca9,808fca8c
33.6154,-117.09139,CW4141 Winchester,C4141,80db7cc,80db7c9,80db7c8c
36.4775,-118.8445,CW4177 Three Rivers,C4177,80955ac,80955ad,80955ac4
34.99083,-117.86317,Edwards Air Force Auxiliary North Base,K9L2,80c3cbc,80c3cbb,80c3cbbc
35.12426,-117.9586,WX6HNX-8 California City,AT407,80c22cc,80c22cf,80c22ce4
38.468,-120.047,CW4253 Bear Valley,C4253,8097564,8097561,8097561c
34.083939,-118.70345,MALIBU CANYON,MBCC1,80e8204,80e8203,80e82024
33.947531,-117.822189,TONNER CANYON,TNRC1,80dcd34,80dcd35,80dcd35c
34.336969,-118.5205,NEWHALL PASS,NHPC1,80c285c,80c285b,80c285bc
33.3386,-117.2208,Fallbrook 3SE,SDFBK,80dc794,80dc791,80dc791c
33.5681,-117.2522,Murrieta,SDMEA,80dc834,80dc837,80dc8374
33.4647,-117.0955,Temecula 3SE,SDTEC,80db81c,80db81f,80db81ec
34.15732,-117.64832,CW4507 Upland,C4507,80c330c,80c330b,80c330b4
39.84165,-121.60521,CW4565 Magalia,C4565,809d2ac,809d2a9,809d2a94
36.491389,-118.825278,ASH MOUNTAIN,TSHC1,80955ac,80955af,80955ae4
37.85,-121.95283,CW4622 Diablo,C4622,808ff4c,808ff49,808ff48c
37.03046,-121.52781,CW4787 Gilroy,C4787,8091e44,8091e41,8091e40c
36.07222,-121.59583,WHALE POINT,WHALE,8092824,8092823,8092823c
36.0675,-121.55917,HIGHLANDS PEAK,HLPK,809283c,8092839,8092839c
33.577778,-116.454083,PINYON,PYNC1,80dbab4,80dbab1,80dbab1c
34.32854,-118.42717,CW5015 Sylmar,C5015,80c28e4,80c28e3,80c28e3c
33.685,-117.65583,CW5283 Foothill Ranch,C5283,80dcc24,80dcc21,80dcc20c
33.99639,-117.4925,Mira Loma Van Buren,CQ171,80dcb44,80dcb45,80dcb454
35.35472,-120.04,Carrizo Plains School-9640 Carrizo,CQ172,80eb78c,80eb789,80eb7894
40.56661,-124.12833,CW5061 Fortuna,C5061,54d40dc,54d40df,54d40dec
38.0335,-119.16976,CW4643 Lee Vining,C4643,80964c4,80964c3,80964c3c
39.07407,-121.02834,CW5488 Grass Valley,C5488,809b0cc,809b0cf,809b0ce4
40.719944,-123.928294,KNEELAND,KNNC1,54d3f0c,54d3f09,54d3f09c
34.65883,-118.38833,CW5551 Elizabeth Lake,C5551,80c268c,80c268b,80c268b4
33.75964,-118.36685,WA6MEM Palos Verdes,AS176,80dd4bc,80dd4bd,80dd4bdc
33.72255,-118.29197,CW5520 San Pedro,C5520,80dd37c,80dd37d,80dd37d4
38.70217,-122.38633,CW5671 Pope Valley,C5671,8084604,8084607,8084606c
34.2895,-118.74383,WD6CGF Simi Valley,AS198,80e8294,80e8295,80e82944
36.073397,-118.541364,PEPPERMINT,PEPC1,80c018c,80c0189,80c0188c
37.9565,-119.1195,CW5780 Lee Vining,C5780,809648c,809648b,809648a4
37.675333,-119.787917,EL PORTAL,EPWC1,8096ea4,8096ea1,8096ea0c
37.534472,-119.644972,WAWONA,WWNC1,8096904,8096905,80969054
38.41917,-122.75167,CW5786 Santa Rosa,C5786,808437c,8084379,8084378c
34.39361,-118.88389,FILLMORE 1E FISH HATCHERY,FFHC1,80e9cd4,80e9cd1,80e9cd0c
34.34528,-119.41917,LA CONCHITA,LCTC1,80e907c,80e9079,80e90784
34.50222,-119.72667,La Cumbre Peak,LCPC1,80e96bc,80e96bb,80e96ba4
34.73389,-119.10056,Lockwood Valley,LOKC1,80e993c,80e993b,80e993a4
34.2308,-118.0711,Mount Wilson,MWSC1,80c2dd4,80c2dd7,80c2dd7c
34.77056,-119.65194,Santa Barbara Portrero,SBTC1,80e9624,80e9625,80e96254
34.4769,-120.1305,Tajiguas Landfill,TJGC1,80e94d4,80e94d1,80e94d1c
34.2673,-119.2108,Ventura County Government Center,VTUC1,80e84d4,80e84d5,80e84d4c
34.69056,-119.66444,West Big Pine,WBPC1,80e9644,80e9645,80e96444
37.75967,-122.43167,CW5988 San Francisco,C5988,808f7e4,808f7e1,808f7e1c
33.338,-118.3305,Avalon,AIDC1,80dd72c,80dd729,80dd729c
33.92722,-116.84581,BANNG1,UP276,80db414,80db411,80db411c
40.39395,-122.25898,CULP,UP299,54d2c5c,54d2c5d,54d2c5c4
38.36069,-121.34657,ESCNGR,UP310,809abec,809abed,809abed4
34.00299,-117.88917,MARNE,UP361,80c32a4,80c32a5,80c32a4c
38.37894,-121.45111,PHILIP,UP389,809ac84,809ac81,809ac804
40.65987,-122.39351,SLVRHN,UP412,54d28cc,54d28cf,54d28cfc
33.90419,-116.64207,TIPTN1,UP442,80db17c,80db17d,80db17c4
35.25639,-120.6689,San Luis Obispo - South Higuera St,CQ177,80ecf0c,80ecf0d,80ecf0dc
37.89942,-122.12267,CW6192 Lafayette,C6192,8085624,8085625,80856254
37.066389,-120.803889,SAN LUIS PORTABLE,TS623,80917c4,80917c3,80917c2c
37.642189,-119.036401,Mammoth Chair 1 Summit,MTH01,80960d4,80960d3,80960d34
37.636828,-119.017109,Mammoth Chair 22 Summit,MTH02,80960d4,80960d1,80960d1c
37.630225,-119.032529,Mammoth Summit,MTH03,80960d4,80960d3,80960d24
37.650547,-119.037654,Mammoth Base (Main Lodge),MTH04,80960d4,80960d5,80960d4c
37.23545,-119.5195,CW6459 North Fork,C6459,80942e4,80942e1,80942e0c
34.577,-120.648,Point Arguello,PTGC1,80ec26c,80ec26f,80ec26e4
40.7,-124.6,Buoy 46022,46022,54d6a1c,54d6a1d,54d6a1dc
32.87,-117.26,La Jolla,LJPC1,80dc06c,80dc06b,80dc06a4
37.65417,-122.47283,CW6504 Pacifica,C6504,808f7bc,808f7bb,808f7bbc
41.781422,-120.319389,COLD SPRINGS,CSZC1,54cbcc4,54cbcc7,54cbcc7c
37.369,-122.16583,CW6623 Los Altos Hills,C6623,808fb04,808fb03,808fb024
38.70806,-120.60694,CW6601 Pollock Pines,C6601,809a46c,809a46b,809a46bc
32.67605,-117.17387,W3NRG-1 Coronado,AS414,80deacc,80deacd,80deacd4
40.92533,-121.66002,WD6FGE Burney,AS418,54cd0bc,54cd0bf,54cd0bf4
33.80383,-118.31033,CW6773 Torrance,C6773,80dd4a4,80dd4a7,80dd4a7c
35.071389,-118.481111,KRN02,TMNC1,80c21d4,80c21d3,80c21d2c
33.631283,-116.690883,BDF03 PORTABLE,TS648,80db094,80db097,80db0964
38.80867,-121.2855,K6ALF Rocklin,AR944,809b224,809b221,809b2214
38.69538,-120.84892,CW6129 Placerville,C6129,809a59c,809a59d,809a59d4
35.16809,-118.49407,CW6906 Tehachapi,C6906,80c1f9c,80c1f9f,80c1f9e4
37.81826,-121.90833,W6SAS Blackhawk,AS498,808ff3c,808ff3d,808ff3d4
38.17167,-122.12967,CW6944 Fairfield,C6944,808512c,808512d,808512d4
38.09417,-122.95,PT REYES RCA,PTRCA,8085d0c,8085d0f,8085d0fc
36.60194,-117.145,USCRN SITE NEAR STOVEPIPE WELLS 1SW,ISWC1,80c752c,80c752f,80c752e4
37.16194,-118.54583,SAWMILL NEAR PIG PINE 15W  (SWM),SAWC1,80be2f4,80be2f7,80be2f64
40.18,-120.60694,ANTELOPE LAKE 9SSW,ANTC1,809db44,809db47,809db46c
40.11917,-120.48306,DOYLES CROSSING NEAR MILFORD 8WSW (DOY),DLCC1,809c35c,809c35b,809c35ac
37.935,-119.23278,ELLERY LAKE NEAR LEE VINING 6WSW (ERY),ERYC1,8096504,8096501,8096501c
40.41833,-121.275,HARKNESS FLAT NEAR CHESTER 8NNW (HRK),HRKC1,809d5dc,809d5d9,809d5d9c
37.45778,-118.73528,ROCK CREEK LAKES NEAR SCHEELITE 7NW (RCK),RCKC1,8095f9c,8095f9b,8095f9bc
39.16639,-120.14333,TRUCKEE RIVER AT TAHOE CITY,TRTC1,80997dc,80997d9,80997d9c
38.88194,-121.045,AUBURN DAM RIDGE NEAR AUBURN 2SE,ADRC1,809b04c,809b049,809b0494
39.27611,-120.70806,BLUE CANYON NEAR EMIGRANT GAP 2SW  (BLC),BCYC1,809b90c,809b90b,809b90ac
39.91,-121.31667,BUCKS CREEK POWERHOUSE NEAR MEADOW VALLEY 13W  (BUP),BUPC1,809cdf4,809cdf7,809cdf7c
39.05139,-121.31611,BEAR RIVER AT CAMP FAR WEST DAM NEAR NEAR WHEATLAND 6E  (CFW),CFWC1,809b40c,809b40f,809b40fc
39.33083,-121.18972,COLGATE POWER HOUSE NEAR DOBBINS 3SSE  (CGT),COGC1,809b61c,809b619,809b6194
39.55694,-120.83,DOWNIEVILLE NEAR SIERRA CITY 10W  (DNV),DNVC1,809c7c4,809c7c5,809c7c44
38.92472,-120.78944,RANGER STATION AT GEORGETOWN,GEOC1,809bac4,809bac7,809bac6c
41.0225,-122.39917,GIBSON NEAR CASTELLA 10SSW (GIB),GISC1,54d275c,54d2759,54d27584
40.13917,-120.94167,GREENVILLE 1W  (GRE),GRRC1,809d07c,809d07b,809d07ac
40.2725,-121.09139,HAMILTON BRANCH NEAR CHESTER 9E  (HAM),HABC1,809d12c,809d12b,809d12b4
40.34806,-121.60861,MINERAL (MIN),MNAC1,809d54c,809d54b,809d54a4
39.75361,-121.62472,PARADISE 2SW  (PDE),PDEC1,809cd4c,809cd4b,809cd4ac
38.75611,-120.50028,PACIFIC HOUSE  (PFH),PFHC1,809a38c,809a38f,809a38f4
38.20028,-119.98333,PINECREST 1NNE,PNCC1,8097484,8097481,8097480c
40.15333,-122.20167,SACRAMENTO RIVER BELOW RED BLUFF DIVERSION DAM NEAR RED BLUFF 2SE,RDBC1,808284c,8082849,80828494
40.12806,-121.04389,RATTLESNAKE NEAR GREENVILLE 6SW  (RTL),RTLC1,809d054,809d057,809d0574
39.56778,-120.65278,SIERRA CITY 1W  (SRC),SEYC1,809c76c,809c76f,809c76ec
39.90444,-121.52778,STIRLING CITY  (SRL),SGYC1,809d294,809d297,809d2964
40.49611,-121.85,SHINGLETOWN 2E  (SHI),SHIC1,54d2a64,54d2a61,54d2a604
39.45806,-121.67111,THERMALITO RIVER OUTLET WEATHER STATION NEAR OROVILLE 7W (TWS),TWSC1,80834b4,80834b1,80834b0c
38.80583,-122.70833,WHISPERING PINES NEAR MIDDLETOWN 6NW  (WSP),WSPC1,8084734,8084735,8084734c
40.64528,-122.95667,TRINITY RIVER NEAR DOUGLAS CITY 1SW,DCYC1,54d3ab4,54d3ab3,54d3ab34
40.23,-124.14806,HONEYDEW 1SW (HNY),HONC1,54d458c,54d458f,54d458f4
40.71694,-123.28306,MUD SPRINGS NEAR WEAVERVILLE 18W (MUD),MUDC1,54d3b74,54d3b75,54d3b74c
40.72667,-122.79333,FISH HATCHERY AT LEWISTON (LFH),TRHC1,54d25a4,54d25a1,54d25a04
40.20833,-123.45972,ZENIA 2ENE  (ZEN),ZENC1,54d49dc,54d49dd,54d49dd4
38.57111,-122.43333,ANGWIN PACIFIC UNION COLLEGE AT ANGWIN (ANG),ANGC1,8084594,8084597,80845974
35.89667,-121.08722,SAN ANTONIO - LOCKWOOD NR,LWDC1,8092c4c,8092c4d,8092c4cc
38.43306,-122.25,ATLAS PEAK (ATL),NAPC1,8084fdc,8084fdf,8084fdf4
37.74056,-120.1325,DUDLEY RANCH AT COULTERVILLE,DUDC1,8096d34,8096d37,8096d36c
37.23611,-120.8825,USCRN SITE NEAR GUSTINE NEAR MERCED 23WSW,GSTC1,809175c,809175f,809175e4
35.43333,-118.78333,KERN CANYON POWERHOUSE NEAR CALIENTE 12NNW  (KPH),KCPC1,80ea714,80ea715,80ea715c
36.16306,-118.70722,SPRINGVILLE TULE POWERPLANT NEAR CAMP NELSON 6WNW  (SGV),STQC1,80eaa7c,80eaa7d,80eaa7c4
37.91083,-119.25861,TIOGA PASS ENTRY STATION NEAR TUOLUMNE MEADOWS 7ENE (TES),TIRC1,80965ac,80965a9,80965a9c
37.50806,-119.63222,YOSEMITE AT WAWONA (YOW),YWAC1,8096904,8096907,80969074
35.4,-120.6325,BLACK MOUNTAIN NEAR SANTA MARGARITA 11E (BLM),BMTC1,80eceec,80eceeb,80eceebc
32.57444,-117.12694,NERRS METEOROLOGICAL SITE AT TIJUANA RIVER IMPERIAL BEACH,TIXC1,80d94cc,80d94c9,80d94c8c
37.11299,-122.11333,CW7052 Boulder Creek,C7052,808e4f4,808e4f7,808e4f6c
37.68017,-121.88883,KK6ZL Pleasanton,AS530,808fe94,808fe97,808fe96c
40.76617,-124.1645,CW7137 Eureka,C7137,54d3ffc,54d3ff9,54d3ff84
34.08566,-117.68217,AF6TT Montclair,AS524,80c3314,80c3317,80c3317c
35.611667,-118.405,LYNCH CANYON,LYQC1,80c1cf4,80c1cf5,80c1cf5c
34.823611,-118.963056,KRN03,KRTC1,80e9f24,80e9f21,80e9f204
39.20101,-120.79661,CW6842 Alta,C6842,809b98c,809b98d,809b98d4
37.30467,-121.98167,CW7293 San Jose,C7293,808fcac,808fcab,808fcaa4
34.2,-118.56833,CW7387 Winnetka,C7387,80c29bc,80c29bf,80c29bfc
37.423,-122.10833,CW7418 Palo Alto,C7418,808fba4,808fba7,808fba6c
33.73068,-117.4276,CW7445 Corona,C7445,80dc964,80dc963,80dc9624
37.11996,-122.12118,CW7395 Boulder Creek,C7395,808e4f4,808e4f1,808e4f0c
33.76155,-116.6941,CW7408 Fern Valley,C7408,80db11c,80db119,80db118c
33.73283,-118.30533,CW7496 San Pedro,C7496,80dd49c,80dd49d,80dd49d4
34.3519,-119.08186,CW7664 Santa Paula,C7664,80e9b5c,80e9b5b,80e9b5ac
38.3768,-120.79391,Westover Field - Amador County Airport,KJAQ,809a7b4,809a7b7,809a7b7c
39.42806,-120.03306,TRUCKEE RIVER AT FARAD,FARC1,80995c4,80995c5,80995c4c
39.32667,-120.11333,MARTIS CREEK LAKE NEAR TRUCKEE 4E,MTSC1,809961c,809961b,809961ac
39.47056,-120.10306,STAMPEDE RESERVOIR NEAR BOCA 6N,STPC1,8099594,8099591,8099591c
39.89722,-121.20278,BUCKS LAKE NEAR QUINCY 14WSW  (BKL),BKLC1,809ce14,809ce11,809ce114
39.18222,-122.70222,BARTLETT SPRINGS RAINGAGE,BLTC1,8083954,8083955,80839544
39.45,-120.65222,BOWMAN LAKE NEAR GRANITEVILLE 5W  (BOL),BOWC1,809b894,809b893,809b893c
39.695,-121.34528,BRUSH CREEK RANGER STATION NEAR BERRY CREEK 5NE  (BRS),BRRC1,809cc3c,809cc3f,809cc3f4
39.00028,-121.40556,BEAR RIVER NEAR WHEATLAND 1SE,BRWC1,809b47c,809b479,809b479c
39.33833,-122.02167,SACRAMENTO RIVER AT MOULTON WEIR NEAR COLUSA 8N  (MLW),CLSC1,80836a4,80836a3,80836a3c
39.45111,-121.04889,CAMPTONVILLE NEAR ALLEGHANY 2SW  (CAM),CMVC1,809c834,809c831,809c8314
39.02639,-121.43611,DRY CREEK NEAR WHEATLAND 2NW,DCWC1,809b464,809b463,809b462c
39.87194,-121.61111,DE SABLA NEAR PARADISE 8N  (DES),DESC1,809d2b4,809d2b3,809d2b24
39.81306,-121.32111,FOUR TREES NEAR PARADISE 15ENE  (FOR),FRTC1,809cdc4,809cdc5,809cdc44
36.41611,-120.67139,IDRIA (IDR),IDAC1,8093084,8093083,80930834
39.08056,-122.53361,INDIAN VALLEY RESERVOIR NEAR LOWER LAKE 12NE,INVC1,8083854,8083855,8083855c
40.60167,-122.44333,SACRAMENTO RIVER BELOW KESWICK DAM WATER QUALITY NEAR REDDING 3WSW,KESC1,54d2edc,54d2ed9,54d2ed84
39.67806,-120.98694,LA PORTE  (LAP),LPTC1,809c8b4,809c8b7,809c8b7c
38.92417,-122.56472,CACHE CREEK NEAR LOWER LAKE (CDEC ID CCL) 3NE,CLFC1,808477c,808477d,808477c4
38.4,-120.63333,PINE GROVE 2SE (PIN),PGRC1,809a714,809a717,809a716c
37.99889,-121.31861,STOCKTON 3NNW FIRE STATION #4 (SFS),SCKC1,80900c4,80900c5,80900c5c
39.54111,-122.38861,SOUTH FORK WILLOW CREEK NEAR FRUTO 5SE  (WCF),SWIC1,8083aa4,8083aa5,8083aa44
39.88778,-122.52861,THOMES CREEK AT PASKENTA  (THO),TCRC1,8082664,8082663,80826624
40.47833,-123.78667,BRIDGEVILLE 1NE  (BGV),BGVC1,54d477c,54d477f,54d477fc
40.21833,-123.63139,EEL RIVER NEAR FORT SEWARD 1SE,FTSC1,54d49ac,54d49ad,54d49ad4
41.05,-123.6725,TRINITY RIVER AT HOOPA,HOOC1,54d17bc,54d17b9,54d17b9c
39.87472,-123.71944,SOUTH FORK EEL RIVER AT LEGGETT,LEGC1,54d4cfc,54d4cfd,54d4cfc4
40.31083,-123.37333,MAD RIVER ON RUTH LAKE NEAR MAD RIVER 12SE (RTH),MADC1,54d37b4,54d37b3,54d37b34
40.18194,-123.775,SOUTH FORK EEL RIVER NEAR MIRANDA 4SE,MRNC1,54d48dc,54d48df,54d48dfc
41.29944,-124.05,REDWOOD CREEK BELOW PRAIRIE CREEK NEAR ORICK 1N,ORIC1,54d1054,54d1057,54d10564
39.35056,-123.32167,WILLITS HOWARD RANGER STATION NEAR WILLITS 5SSE  (WIL),WILC1,80819c4,80819c7,80819c6c
38.90528,-123.23139,YORKVILLE 1WNW  (YOR),YRKC1,80815ac,80815af,80815ae4
35.93028,-120.86778,SALINAS RIVER NEAR BRADLEY 6NW,BRDC1,809327c,809327b,809327bc
37.49611,-122.32889,CRYSTAL SPRINGS COTTAGE NEAR SAN CARLOS  (CSC),CXCC1,808f9fc,808f9f9,808f9f8c
37.77056,-122.42694,SAN FRANCISCO DOWNTOWN,SFOC1,808580c,808580b,808580a4
38.49194,-122.53306,SAINT HELENA 4WSW (SH4),STHC1,8084504,8084501,80845004
38.60861,-123.01806,VENADO  (VEN),VNOC1,80841cc,80841cf,80841cf4
35.30944,-118.36028,BACK CANYON NEAR TEHACHAPI 13NNE,ABCC1,80c1edc,80c1ed9,80c1ed8c
35.63278,-118.24306,BURNING MOSCOW NEAR LORAINE 15NE  (BMC),ABMC1,80c1b9c,80c1b9d,80c1b9cc
35.5675,-118.28833,BOB RABBIT ALERT #1850 NEAR WELDON 6SSW  (BOB),ABRC1,80c1b8c,80c1b8b,80c1b8ac
35.50833,-118.18889,FROG SPRINGS NEAR WELDON 12SSE  (FRG),AFSC1,80c1bdc,80c1bdf,80c1bdf4
35.25806,-118.56722,OREJANO CANYON NEAR KEENE 1N,AKEC1,80c1e4c,80c1e4b,80c1e4bc
35.42583,-118.41167,PIUTE PEAK NEAR TEHACHAPI 21NE  (PPK),APIC1,80c1e9c,80c1e99,80c1e994
35.55833,-118.14306,PINYON CREEK ALERT #1848 NEAR ONYX 11SSE  (PYC),APYC1,80c1bcc,80c1bcf,80c1bce4
35.09028,-118.44778,LIME KILN CANYON NEAR TEHACHAPI 3S,ATHC1,80c21d4,80c21d1,80c21d0c
35.94111,-118.0625,BIG PINE MEADOW NEAR KERNVILLE 24NE,BPMC1,80c0514,80c0517,80c0517c
37.65389,-120.3125,DRY CREEK AT COULTERVILLE (DCC),DCUC1,80912fc,80912fb,80912fbc
37.555,-120.46222,DRY CREEK NEAR SNELLING 2N (DSN),DSNC1,80913cc,80913cf,80913cec
35.28167,-118.41139,INDIAN CREEK NEAR TEHACHAPI 11NE,IDKC1,80c1f1c,80c1f1f,80c1f1e4
36.99361,-120.92972,LOS BANOS DAM NEAR LOS BANOS 7SW (LBS),LBDC1,8091804,8091807,8091806c
36.02944,-118.21944,MAHOGANY NEAR KERNVILLE 22NE,MHYC1,80c046c,80c0469,80c0468c
35.33167,-118.58639,OIL CANYON NEAR CALIENTE 4NNE,OICC1,80c1e14,80c1e15,80c1e154
35.38417,-118.41194,PIUTE FIRE STATION NEAR TEHACHAPI 18N,PIFC1,80c1e94,80c1e95,80c1e944
35.13306,-118.43833,TEHACHAPI AIRPORT NEAR TEHACHAPI 1E,TAPC1,80c1f64,80c1f63,80c1f634
35.28861,-118.45111,STUD HORSE CANYON NEAR TEHACHAPI 11N,TSDC1,80c1efc,80c1efd,80c1efcc
35.22083,-118.47111,TWEEDY CREEK NEAR KEENE 3E,TWCC1,80c1f0c,80c1f09,80c1f094
35.07222,-118.48389,WATER CANYON NEAR TEHACHAPI 5SSW  (WCN),WATC1,80c21d4,80c21d3,80c21d2c
35.38222,-118.54556,WALKER BASIN NEAR CALIENTE 8NNE  (WBN),WLBC1,80c1e74,80c1e71,80c1e71c
35.20528,-118.41056,WHITEROCK CREEK NEAR TEHACHAPI 6NE  (WCK),WRKC1,80c1f6c,80c1f6b,80c1f6b4
34.52222,-118.8925,REDROCK CREEK PRECIPITATION GAUGE AT DOUGH FLAT NEAR FILLMORE 8N,DGFC1,80e9c54,80e9c57,80e9c564
35.71722,-120.63917,ESTRELLA RIVER NEAR ESTRELLA NEAR SAN MIGUEL 4SE,ESRC1,80eccec,80ecceb,80eccebc
34.52306,-118.75611,PIRU CREEK ABOVE LAKE PIRU NEAR PIRU 8NNE,PCPC1,80e9d74,80e9d73,80e9d734
34.51333,-118.75667,PIRU CANYON NEAR LAKE PIRU NEAR PIRU 7NNE,PCQC1,80e9d74,80e9d73,80e9d72c
35.37361,-120.63722,SANTA MARGARITA BOOSTER STATION NEAR SANTA MARGARITA 2SW  (SMB),SMRC1,80ecee4,80ecee7,80ecee64
34.47917,-118.88139,SESPE WESTATES NEAR FILLMORE 5NNE,SWAC1,80e9cfc,80e9cfd,80e9cfcc
34.32583,-118.71861,TAPO CANYON NEAR SIMI VALLEY 3N,TCNC1,80e82a4,80e82a3,80e82a2c
34.12833,-117.27139,GILBERT STREET PRECIP GAGE AT SAN BERNARDINO,GSPC1,80c3534,80c3537,80c35364
34.2525,-117.52389,MIDDLE FORK LYTLE CREEK PRECIPITATION SITE NEAR LYTLE CREEK 1WSW,MFLC1,80c3474,80c3471,80c3470c
34.3425,-117.235,MOJAVE DAM NEAR HESPERIA 7SE,MVDC1,80c3594,80c3593,80c3593c
33.49556,-116.97583,VAIL LAKE NEAR TEMECULA 9E,VLKC1,80db9d4,80db9d5,80db9d4c
33.53222,-117.17611,WARM SPRINGS CREEK NEAR MURRIETA 3SE,WRSC1,80dc81c,80dc81f,80dc81e4
33.484,-117.7015,CW7857 Dana Point,C7857,80dcf04,80dcf03,80dcf034
40.42333,-122.73667,OGO RANGER STATION NEAR ONO 7SW (OGO),OGOC1,54d31ec,54d31e9,54d31e8c
41.98806,-123.71833,ELK VALLEY NEAR GASQUET 17NE   (ELK),ELKC1,54d01d4,54d01d1,54d01d04
37.054722,-119.281056,SNF06 PORTABLE,FSBC1,8095b6c,8095b6d,8095b6d4
37.29699,-121.7649,CW7794 San Jose,C7794,808e2c4,808e2c3,808e2c34
34.777,-118.2775,WW6RY Lancaster,AS661,80c241c,80c241d,80c241c4
32.76697,-117.01615,CW7369 La Mesa,C7369,80d9574,80d9573,80d9573c
33.8977,-117.6024,Corona Airport,KAJO,80dcc94,80dcc91,80dcc904
34.2638,-116.856,Big Bear City Airport,KL35,80c4b44,80c4b43,80c4b43c
34.1339,-118.01814,CW8284 Monrovia,C8284,80c2d94,80c2d97,80c2d97c
35.13083,-118.49383,CW8288 Tehachapi,C8288,80c1f84,80c1f83,80c1f824
37.74883,-122.465,CW8158 San Francisco,C8158,808f7dc,808f7df,808f7df4
40.98238,-122.6945,CW8353 Trinity Center,C8353,54d2134,54d2133,54d21334
37.838878,-118.771892,DEXTER,DEXC1,8096194,8096193,80961934
33.95833,-116.593,Whitewater,SDDHS,80db22c,80db22d,80db22c4
37.27417,-121.94333,NO1PC Campbell,AS249,808e34c,808e34f,808e34fc
34.28349,-119.29886,CW8514 Ventura,C8514,80e9acc,80e9acf,80e9acf4
35.64583,-118.47722,ISABELLA WEATHER STATION NEAR LAKE ISABELLA,ISLC1,80c1ce4,80c1ce3,80c1ce24
36.958,-121.97333,CW8539 Santa Cruz,C8539,808e154,808e153,808e153c
32.92926,-117.13108,CW8688 Mira Mesa,C8688,80dbf8c,80dbf8f,80dbf8fc
38.3293,-122.31884,AA6AV-10 Napa,AS725,8085074,8085073,8085072c
37.97417,-120.689,CW8746 Copperopolis,C8746,8090ed4,8090ed3,8090ed34
38.19483,-120.0165,KG6QPT Pinecrest,AS728,8097484,8097485,8097484c
38.784597,-120.310514,SUGARLOAF (ENF),SKBC1,809a24c,809a249,809a249c
34.1003,-116.38851,CW7929 Yucca Valley,C7929,80dad8c,80dad8f,80dad8f4
38.26241,-119.2257,BRYANTFIELDMONO,KO57,8097bac,8097bad,8097bacc
34.08526,-117.14637,REDLANDS,KREI,80db55c,80db55b,80db55a4
34.13159,-115.94582,29PALMS,KTNP,80dabc4,80dabc3,80dabc24
39.8719,-121.65025,CW8878 Forest Ranch,C8878,8082d4c,8082d4b,8082d4bc
32.98476,-117.17883,KA6IQA Rancho Santa Fe,AS751,80dc084,80dc083,80dc0824
35.12414,-117.96651,CW9012 California City,C9012,80c22cc,80c22cf,80c22cfc
37.398333,-121.806944,SANJOSE,RJSC1,808fd24,808fd27,808fd274
34.86867,-118.20917,KK6KU Rosamond,AS776,80c23f4,80c23f5,80c23f4c
35.58646,-117.69407,CW9067 Ridgecrest,C9067,80c16dc,80c16db,80c16dac
33.98527,-116.98768,CW9072 Beaumont,C9072,80db5ac,80db5ab,80db5ab4
38.06662,-120.64796,CW9085 Angels Camp,C9085,809093c,809093d,809093dc
38.49219,-120.54208,CW9148 Pioneer,C9148,809a6d4,809a6d5,809a6d5c
38.6474,-121.22829,N6OIM Fair Oaks,AS790,809ae74,809ae73,809ae724
38.6909,-121.2534,CW9181 Orangevale,C9181,809ae0c,809ae09,809ae084
34.60917,-120.13467,CW9206 Solvang,C9206,80e954c,80e9549,80e95494
37.54897,-120.90898,KEYES,UP468,8091aa4,8091aa1,8091aa14
37.10583,-122.055,CW9234 Felton,C9234,808e464,808e463,808e463c
34.15717,-117.997,CW9396 Monrovia,C9396,80c2d94,80c2d95,80c2d944
34.22967,-118.8895,CW9443 Thousand Oaks,C9443,80e8304,80e8305,80e8304c
37.20667,-121.85817,CW9520 San Jose,C9520,808e30c,808e30f,808e30fc
38.02866,-122.03009,CW9461 Concord,C9461,808567c,808567d,808567cc
38.64449,-121.23194,CW9529 Fair Oaks,C9529,809ae74,809ae73,809ae73c
36.97076,-121.96891,CW9585 Santa Cruz,C9585,808e154,808e157,808e156c
35.13844,-120.56042,CW9687 Arroyo Grande,C9687,80ec5e4,80ec5e5,80ec5e44
35.65884,-117.82951,INYOKERN,MKIYK,80c10c4,80c10c1,80c10c0c
34.44804,-119.72469,CW9548 Santa Barbara,C9548,80e914c,80e914d,80e914c4
35.627,-117.8005,CW9763 Inyokern,C9763,80c10cc,80c10cf,80c10cec
33.90633,-118.01533,CW9736 La Mirada,C9736,80dd2b4,80dd2b5,80dd2b5c
38.14178,-122.55463,Novato / Gnoss Field,KDVO,8085bb4,8085bb3,8085bb24
39.21933,-121.07,WA3ELA Grass Valley,AS856,809b704,809b703,809b7024
33.20167,-116.93733,CW9939 Valley Center,C9939,80db934,80db933,80db9324
34.20633,-118.17383,CW9948 La Canada Flintridge,C9948,80c2c24,80c2c27,80c2c274
32.84917,-117.20817,K6SKM San Diego,AS861,80dc00c,80dc00f,80dc00ec
37.80669,-122.465,San Francisco,FTPC1,808586c,808586d,808586c4
37.9283,-122.4,Richmond,RCMC1,808582c,808582d,808582d4
37.5067,-122.21,Redwood City,RTYC1,808fa2c,808fa2f,808fa2f4
37.77167,-122.29833,Alameda,AAMC1,808f80c,808f80f,808f80e4
38.056,-122.0395,Port Chicago,PCOC1,808568c,8085689,8085688c
32.8667,-117.258,La Jolla,LJAC1,80dc06c,80dc06b,80dc06ac
35.1767,-120.76,Port San Luis,PSLC1,80ecf8c,80ecf8f,80ecf8fc
41.745,-124.183,Crescent City,CECC1,54d067c,54d067d,54d067cc
33.72,-118.272,Los Angeles,OHBC1,80dd37c,80dd37b,80dd37bc
32.71419,-117.17358,San Diego,SDBC1,80deab4,80deab5,80deab54
34.4083,-119.685,Santa Barbara,NTBC1,80e913c,80e913f,80e913f4
37.9961,-122.9767,Point Reyes,PRYC1,8085dbc,8085dbf,8085dbec
38.9133,-123.708,Arena Cove,ANVC1,80811ec,80811ed,80811ed4
40.7667,-124.217,North Spit,HBYC1,54d4004,54d4003,54d40034
36.44829,-118.90016,DW0117 Three Rivers Museum,D0117,8095454,8095457,8095457c
33.7753,-118.37049,DW0162 Rancho Palos Verdes,D0162,80dd4bc,80dd4b9,80dd4b94
33.7352,-118.2413,Los Angeles Pier 400,PFDC1,80dd374,80dd371,80dd3704
33.733,-118.1857,Los Angeles Pier J,PRJC1,80dd30c,80dd30b,80dd30bc
33.76362,-118.26542,Los Angeles Berth 161,PXAC1,80dd364,80dd367,80dd366c
33.7663,-118.24,Los Angeles Badger Avenue Bridge,BAXC1,80dd36c,80dd369,80dd3694
33.71583,-118.24612,Angels Gate,AGXC1,80dd374,80dd377,80dd3774
37.8,-122.33,Oakland Middle Harbor,OMHC1,80857fc,80857fd,80857fdc
35.9597,-116.2619,Tecopa/Shoshone,CMP28,80c667c,80c6679,80c66794
37.33617,-122.0575,DW0186 Sunnyvale,D0186,808fb44,808fb43,808fb43c
37.79583,-122.20333,CW6723 Oakland,C6723,808f864,808f865,808f864c
35.39231,-118.88453,CW6825 Bakersfield,C6825,80ea6dc,80ea6dd,80ea6dc4
34.4,-118.9,DW0328 Fillmore,D0328,80e9cdc,80e9cdb,80e9cdac
34.24316,-118.59225,DW0345 Chatsworth,D0345,80c29cc,80c29c9,80c29c94
34.04133,-117.17167,DW0394 Redlands,D0394,80db564,80db561,80db5604
33.19917,-117.387,DW0395 Oceanside,D0395,80dc6e4,80dc6e5,80dc6e4c
37.32399,-119.65102,DW0391 Oakhurst,D0391,8094274,8094277,80942774
33.7683,-118.2257,Los Angeles Pier S,PSXC1,80dd36c,80dd36b,80dd36bc
33.87817,-117.72183,DW0490 Yorba Linda,D0490,80dcce4,80dcce3,80dcce3c
36.41583,-119.00556,LAKE KAWEAH WEATHER STATION NEAR LEMONCOVE 3NNE,KAWC1,809547c,809547d,809547d4
37.75917,-119.82083,USCRN SITE NEAR YOSEMITE VILLAGE NEAR EL PORTAL 12W,YVVC1,8096c2c,8096c2d,8096c2cc
33.66301,-117.83013,DW0553 Irvine,D0553,80dcddc,80dcddd,80dcdddc
33.15044,-116.18041,KD6RSQ-5 Ocotillo Wells,AS938,80da24c,80da24f,80da24fc
34.10917,-118.93611,Circle X Ranch,CRXC1,80e83bc,80e83bf,80e83bec
34.53944,-119.18722,Rose Valley,RSVC1,80e9bcc,80e9bc9,80e9bc8c
34.28278,-119.09333,South Mountain West,SMNC1,80e84b4,80e84b3,80e84b24
34.41722,-119.42361,La Granada Mountain,LGRC1,80e9084,80e9083,80e9082c
37.286,-122.0495,KQ6QV Saratoga,AS952,808fb4c,808fb4d,808fb4dc
41.874,-120.158,DW0735 Fort Bidwell,D0735,54ca304,54ca305,54ca304c
34.6703,-118.9801,Alamo Mountain,AOMC1,80e9ea4,80e9ea7,80e9ea6c
37.45417,-119.64567,DW0826 Fish Camp,D0826,80969b4,80969b1,80969b04
40.73133,-124.205,DW0866 Eureka,D0866,54d4014,54d4011,54d40114
34.26733,-118.91667,DW0912 Moorpark-Home Acres,D0912,80e833c,80e833d,80e833d4
34.28583,-118.87967,DW0915 Moorpark-Downtown,D0915,80e8324,80e8321,80e83214
33.8655,-118.39617,DW1009 Hermosa Beach,D1009,80c2b34,80c2b37,80c2b37c
33.19283,-116.27867,DW1021 Borrego Springs,D1021,80da31c,80da31b,80da31b4
37.20917,-119.97833,EASTMAN LAKE WEATHER STATION NEAR RAYMOND 4WSW,ELWC1,8094034,8094033,8094032c
37.11444,-119.89333,HENSLEY LAKE WEATHER STATION NEAR RAYMOND 7S,HLWC1,809410c,809410b,809410a4
37.82567,-120.73367,DW1155 Knights Ferry,D1155,8090f04,8090f01,8090f014
33.19583,-117.21767,DW1175 Vista,D1175,80dc75c,80dc75d,80dc75d4
41.516083,-123.645267,SRF52 PORTABLE,TS777,54d1b44,54d1b43,54d1b434
33.74,-116.888,Hemet Valle Vista,SDHET,80db6c4,80db6c3,80db6c2c
33.67,-117.37,Lake Elsinore,SDLEL,80dc974,80dc975,80dc9754
33.96,-117.233,Moreno Valley,SDMRO,80dca8c,80dca89,80dca894
38.03828,-122.12053,Union Pacific Rail Rd Bridge (UPRR),UPBC1,80856f4,80856f1,80856f0c
36.31194,-121.57028,CHEWS RIDGE,CHWC1,809279c,809279d,809279c4
36.54556,-121.63139,MT TORO,TORC1,808df64,808df61,808df604
33.836092,-116.81125,VISTA GRANDE,VGRC1,80db6b4,80db6b3,80db6b24
39.00533,-120.86967,N6ZQK Foresthill,AT046,809ba7c,809ba7d,809ba7dc
36.85059,-119.63105,DW1297 Clovis,D1297,80945ac,80945af,80945aec
34.09833,-117.7595,DW1595 La Verne,D1595,80c32e4,80c32e3,80c32e34
35.251111,-118.600278,HART FLAT,HFLC1,80c1e34,80c1e35,80c1e344
36.22167,-121.75983,DW1685 Big Sur,D1685,808d844,808d845,808d845c
33.815278,-116.641944,MT. SAN JACINTO,MSJC1,80db10c,80db10d,80db10c4
41.08393,-122.72194,DW1811 Trinity Center,D1811,54d20fc,54d20fd,54d20fcc
34.90133,-118.652,WA6TK-3 Rosamond,AT084,80c2084,80c2081,80c2080c
34.2365,-117.65883,DW1871 Mt Baldy,D1871,80c33bc,80c33bf,80c33bec
35.706111,-118.8325,WOODY,WOCC1,80ea864,80ea865,80ea864c
32.96086,-117.01983,DW1910 Poway,D1910,80dbfac,80dbfaf,80dbfae4
38.38217,-123.06867,DW1970 Bodega Bay,D1970,8084274,8084277,80842764
33.41511,-117.12317,KG6YVD-10 Rainbow,AT107,80db814,80db811,80db811c
34.19111,-118.95639,DW1941 Newbury Park,D1941,80e8374,80e8375,80e8374c
34.23113,-119.02989,DW2070 Camarillo,D2070,80e8364,80e8361,80e8360c
37.53769,-122.50693,DW2059 Montara,D2059,808f71c,808f71b,808f71bc
37.32799,-119.55248,DW2149 Bass Lake,D2149,8094294,8094291,80942904
37.25503,-121.90469,DW2128 San Jose,D2128,808e344,808e341,808e340c
40.37783,-120.59667,DW2000 Susanville,D2000,809dbec,809dbef,809dbeec
33.24633,-117.25333,AF6GL Oceanside,AT125,80dc774,80dc773,80dc773c
38.61318,-122.8285,DW2144 Healdsburg,D2144,808416c,808416b,808416bc
39.236,-121.00467,DW2319 Nevada City,D2319,809b70c,809b70d,809b70c4
34.07509,-118.62692,DW2363 Malibu,D2363,80c2a04,80c2a03,80c2a034
33.06267,-117.28933,DW2370 Leucadia,D2370,80dc0cc,80dc0c9,80dc0c8c
32.926536,-118.531686,HOEPPEL,SIXC1,80dd8fc,80dd8fb,80dd8fac
32.82625,-118.361611,OP1 (SAN CLEMENTE ISLAND),ISCC1,80ddeb4,80ddeb3,80ddeb3c
32.833767,-118.422231,OP3 (SAN CLEMENTE ISLAND),SCJC1,80dd934,80dd933,80dd9334
37.91617,-122.286,W6ZZY Kensington,AT159,8085794,8085797,8085796c
37.33467,-121.97883,DW2458 Santa Clara,D2458,808fca4,808fca7,808fca64
33.95322,-117.69636,DW2585 Chino Hills,D2585,80dccdc,80dccdb,80dccdac
37.34149,-119.66748,WX6HNX-2 Oakhurst,AT301,80969dc,80969d9,80969d8c
38.42108,-121.43403,DW2634 Elk Grove,D2634,809ac64,809ac63,809ac634
38.71017,-123.45133,DW2695 The Sea Ranch,D2695,808135c,8081359,80813594
34.819434,-120.531396,Casmalia,CASC1,80ec3e4,80ec3e1,80ec3e1c
37.866,-120.17067,DW2740 Groveland,D2740,8090d4c,8090d4d,8090d4dc
38.38949,-122.96939,DW2849 Occidental,D2849,808425c,808425d,808425cc
33.02684,-117.11778,DW2868 San Diego,D2868,80dbf6c,80dbf6f,80dbf6fc
37.693028,-121.609333,ALTAMONT,AATC1,8090204,8090201,80902014
33.28117,-117.02467,DW2994 Valley Center,D2994,80db8e4,80db8e5,80db8e54
40.913933,-123.668781,BRUSH MOUNTAIN,BHTC1,54d3d94,54d3d93,54d3d93c
38.03464,-122.12519,Martinez-Amorco Pier,MZXC1,80856f4,80856f1,80856f0c
33.7483,-118.268,Los Angeles Pier F,PFXC1,80dd364,80dd365,80dd3644
32.92109,-117.25306,DW3101 Torrey Pines Reserve,D3101,80dc064,80dc067,80dc066c
37.0581,-122.03573,DW3150 Scotts Valley,D3150,808e474,808e473,808e4724
36.83278,-119.33722,PINE FLAT WEATHER STATION NEAR PIEDRA 3NE,PFLC1,8095aa4,8095aa3,8095aa34
33.188,-116.761,Mesa Grande,HP004,80dbc04,80dbc05,80dbc054
33.01,-116.97,Mt. Woodson,HP005,80dbefc,80dbeff,80dbeff4
37.83167,-122.24967,DW3169 Oakland,D3169,80857dc,80857df,80857df4
37.927,-122.0945,DW3296 Lafayette,D3296,808563c,808563d,808563dc
35.40333,-119.47056,WX6HNX-5 Buttonwillow,AT285,80ebac4,80ebac7,80ebac7c
33.7125,-117.76367,DW3439 Irvine,D3439,80dcdcc,80dcdcf,80dcdcec
36.8933,-121.4103,"Hollister, CA",KCVH,8091f74,8091f71,8091f71c
38.5158,-122.98369,DW3481 Guerneville,D3481,808418c,808418b,808418b4
37.54883,-122.2589,DW3499 Foster City,D3499,808f98c,808f98d,808f98d4
40.618361,-121.449861,LNF07 PORTABLE,TS877,54cd464,54cd463,54cd462c
32.6675,-116.699444,BARRETT,BAJC1,80d96ec,80d96eb,80d96eb4
36.86192,-119.71212,DW3347 Clovis,D3347,8094434,8094435,8094434c
37.23867,-122.04417,DW3546 Saratoga,D3546,808e4b4,808e4b1,808e4b04
37.65447,-122.02883,DW3560 Hayward,D3560,808f94c,808f949,808f9484
32.783,-117.136,MISSION VALLEY,BVDC1,80d9554,80d9551,80d9550c
33.361111,-117.105833,PALA,PZAC1,80db86c,80db86f,80db86f4
33.091389,-117.012222,SAN PASQUAL,PSQC1,80dbf24,80dbf23,80dbf224
32.67475,-116.094472,MOUNTAIN SPRINGS GRADE,TNSC1,80d9be4,80d9be5,80d9be54
37.89893,-121.72298,DW3588 Brentwood,D3588,808ffbc,808ffbf,808ffbfc
33.74776,-117.15214,DW3590 Hemet,D3590,80db61c,80db61d,80db61cc
36.35917,-119.31833,NR6G-1 Visalia,AT311,809525c,809525d,809525dc
34.15871,-118.04062,DW3624 Sierra Madre,D3624,80c2dbc,80c2dbf,80c2dbf4
34.195119,-118.093619,HENNINGER FLATS,HNGC1,80c2dd4,80c2dd3,80c2dd24
37.14683,-121.63783,DW3723 Morgan Hill,D3723,808e20c,808e20b,808e20a4
33.81048,-118.38093,DW3801 Redondo Beach,D3801,80dd4b4,80dd4b5,80dd4b44
37.85111,-122.155,DW3835 Orinda,D3835,808f884,808f881,808f881c
38.41667,-122.889,DW3838 Sebastopol,D3838,80843ac,80843ad,80843ad4
36.18278,-120.12222,WX6HNX-6 Huron,AT338,8094a74,8094a73,8094a72c
35.12481,-118.39204,MNLTH1,UP477,80c21e4,80c21e1,80c21e04
35.10052,-118.28567,CAMRNW,UP478,80c221c,80c221d,80c221c4
35.10336,-118.18772,WAREN1,UP479,80c226c,80c226b,80c226a4
35.02498,-118.16529,NOMOJW,UP480,80c23b4,80c23b3,80c23b2c
34.47139,-120.22654,GAVIWS,UP481,80eeb24,80eeb27,80eeb26c
37.32083,-119.56267,N6MDS Bass Lake,AT344,809428c,809428f,809428fc
35.74424,-120.87176,DW4060 Heritage Ranch,D4060,80932ac,80932ad,80932acc
33.155,-117.1625,DW4064 San Marcos,D4064,80db8ac,80db8a9,80db8a9c
32.81052,-116.76409,DW4140 Alpine,D4140,80d960c,80d960d,80d960cc
38.52417,-123.04507,DW4134 Cazadero,D4134,80841e4,80841e5,80841e54
37.32833,-120.452,DW4246 Merced,D4246,809143c,8091439,80914394
37.5136,-122.4996,Half Moon Bay Airport,KHAF,808f724,808f723,808f722c
35.135,-118.4392,Tehachapi Municipal Airport,KTSP,80c1f64,80c1f63,80c1f634
34.24533,-118.25883,DW4312 Glendale,D4312,80c2eb4,80c2eb1,80c2eb0c
32.74667,-117.13883,DW4331 San Diego,D4331,80d954c,80d954f,80d954ec
34.29735,-118.54529,DW4339 Porter Ranch,D4339,80c284c,80c284d,80c284c4
34.43755,-118.54785,DW4390 Valencia,D4390,80c2874,80c2877,80c28764
32.76417,-117.22633,FW0495 Sea World San Diego,F0495,80deaa4,80deaa7,80deaa64
32.83577,-117.19907,KE6BZI San Diego,AT382,80dc00c,80dc00f,80dc00f4
33.89905,-117.29861,DW4438 Riverside,D4438,80dca5c,80dca5b,80dca5bc
33.06236,-117.20033,DW4414 Encinitas,D4414,80dc0a4,80dc0a5,80dc0a44
33.82667,-118.12417,DW4465 Long Beach,D4465,80dd324,80dd321,80dd3214
34.0083,-118.5,Santa Monica,ICAC1,80c2a4c,80c2a4d,80c2a4dc
38.78515,-120.62215,DW4464 Pollack Pines,D4464,809a4f4,809a4f3,809a4f34
38.5315,-121.7865,University Airport,KEDU,808528c,808528f,808528f4
38.824733,-120.729867,ENF03 PORTABLE,TS903,809a524,809a521,809a5214
34.712,-120.47009,DW4531 Vandenberg Village,D4531,80ec19c,80ec19b,80ec19bc
38.43333,-122.89917,DW4623 Graton,D4623,808424c,808424d,808424cc
38.7242,-120.7533,Placerville Airport,KPVF,809a5ac,809a5a9,809a5a84
38.9092,-121.3513,Lincoln Regional Karl Harder Field,KLHM,809b3c4,809b3c7,809b3c74
32.92894,-117.09167,DW4679 San Diego,D4679,80dbf94,80dbf97,80dbf96c
37.96272,-122.30063,DW4688 El Sobrante,D4688,8085774,8085777,8085777c
37.04351,-121.18737,WX6HNX-9 Pacheco Pass,AT423,80918dc,80918dd,80918dc4
37.043,-122.02355,DW4738 Scotts Valley,D4738,808e40c,808e40d,808e40cc
37.7308,-119.5589,Happy Isles,AHIC1,8096f24,8096f25,8096f24c
40.2942,-121.05231,K6TTR Westwood,AT488,809d72c,809d72d,809d72cc
40.56722,-124.13552,K6PIJ Fortuna,AT493,54d40dc,54d40df,54d40dec
36.56951,-121.9676,DW4637 Pebble Beach,D4637,808de74,808de71,808de70c
33.99317,-118.43883,DW4674 Venice,D4674,80c2ba4,80c2ba7,80c2ba64
32.63486,-117.0334,WB6YTE Chula Vista,AT526,80d94e4,80d94e5,80d94e4c
35.99811,-120.12604,WX6HNX-3 Avenal,AT565,8094aa4,8094aa5,8094aa5c
32.95517,-117.20617,DW5079 San Diego,D5079,80dc084,80dc087,80dc0874
34.2764,-118.68375,Simi Valley - Cochran,SV,80e8284,80e8283,80e8282c
39.14556,-123.20306,Ukiah-E Gobbi Street,CQ214,808164c,808164f,808164fc
34.29124,-118.79761,Simi Valley - Upper Air,SU,80e82ec,80e82e9,80e82e9c
34.44804,-119.23131,Ojai - Ojai Ave,OJ,80e9bac,80e9bad,80e9bacc
34.3019,-118.6872,SIMI VALLEY VENTURA,LLLC1,80e829c,80e829d,80e829c4
33.7,-117.5331,MISSION VIEJO ORANGE,SNPC1,80dc954,80dc955,80dc955c
33.5372,-116.0922,MECCA RIVERSIDE,KSFC1,80da434,80da433,80da432c
33.5886,-116.1197,THERMAL RIVERSIDE,WRPC1,80da5c4,80da5c7,80da5c64
33.9667,-117.35,RIVERSIDE RIVERSIDE,UCRC1,80dcae4,80dcae3,80dcae2c
37.4878,-122.2139,Redwood City,RWCC1,808fa34,808fa31,808fa304
36.6044,-118.7325,THREE RIVERS TULARE,LDGC1,80955ec,80955ef,80955ef4
37.7981,-122.26343,Oakland Museum,OAMC1,808f874,808f873,808f8734
34.19389,-116.91361,CONVERSE FIRE STATION NEAR BIG BEAR CITY 6SW,CVNC1,80c4b34,80c4b35,80c4b34c
35.14,-119.4492,TAFT KERN,TFTC1,80ebcac,80ebcaf,80ebcae4
33.36316,-116.83637,KF6ILA-10 Palomar Mtn,AT571,80db97c,80db979,80db979c
34.09683,-118.9569,DW5145 Malibu,D5145,80e8394,80e8395,80e83954
33.15793,-116.1688,OCOTILLO WELLS 2WNW,OCWC1,80da24c,80da24f,80da24f4
33.0797,-116.6028,JULIAN SAN DIEGO,JLNC1,80dbd04,80dbd01,80dbd00c
33.0892,-117.1928,SAN MARCOS SAN DIEGO,NMLC1,80dc0ac,80dc0a9,80dc0a8c
33.2889,-116.8667,PAUMA VALLEY SAN DIEGO,ETKC1,80db96c,80db969,80db969c
39.0835,-120.171153,HOMEWOOD,HMDC1,809bd54,809bd57,809bd574
40.862278,-121.198972,LNF08 PORTABLE,TS924,54cd1fc,54cd1fd,54cd1fc4
34.3617,-117.65,AK7V Wrightwood,AT643,80c3164,80c3167,80c31674
37.77174,-122.51051,DW5422 San Francisco,D5422,808587c,808587b,808587bc
41.643533,-123.444069,DUTCH-INDY,DUIC1,54d1d2c,54d1d2b,54d1d2b4
34.11159,-118.62799,DW5544 Topanga,D5544,80c29fc,80c29f9,80c29f9c
34.136239,-118.606,TOPANGA,TPGC1,80c29f4,80c29f1,80c29f1c
32.82697,-116.77332,Alpine,ANESD,80d960c,80d9609,80d96094
33.35713,-117.2757,Ammo Dump,AMOSD,80dc7c4,80dc7c1,80dc7c04
33.5576,-117.54654,Bell Canyon,CAPSD,80dc92c,80dc92b,80dc92b4
32.85217,-117.11908,Camp Elliot,MPESD,80dbfec,80dbfef,80dbfefc
33.07279,-116.84494,Goose Valley,GOSSD,80dbe8c,80dbe8f,80dbe8fc
33.07656,-116.5908,Julian,JULSD,80dbd04,80dbd01,80dbd014
32.87828,-116.42359,Mt. Laguna,MLGSD,80d978c,80d978b,80d978ac
33.35214,-116.86286,Mt. Palomar,PAMSD,80db974,80db977,80db976c
33.39172,-116.78808,Oak Grove,OGVSD,80dba2c,80dba2b,80dba2ac
33.0494,-116.63691,Pine Hills,PIHSD,80dbdac,80dbdaf,80dbdaf4
32.606357,-116.576878,Potrero,POTSD,80d972c,80d972d,80d972cc
33.2103,-116.50836,Ranchita,RCHSD,80dbcbc,80dbcbf,80dbcbe4
32.68471,-116.98005,San Miguel,MIGSD,80d95ac,80d95ab,80d95aa4
33.47839,-117.43428,Talega,TLGSD,80dc894,80dc895,80dc894c
33.23563,-117.0068,Valley Center,VLCSD,80db8dc,80db8df,80db8dec
32.85138,-116.89515,Los Coches,COCSD,80d958c,80d958b,80d958ac
33.03333,-117.18956,Rancho Santa Fe,RSFSD,80dc09c,80dc09f,80dc09f4
32.745,-116.0376,Imperial Valley,IMPSD,80d9eac,80d9ead,80d9eacc
32.63604,-116.11823,In Ko Pah,IKPSD,80d9bec,80d9beb,80d9bebc
32.71384,-116.86904,Jamul,JAMSD,80d95cc,80d95cb,80d95cbc
32.91431,-117.02959,Sycamore Canyon,SYCSD,80dbfb4,80dbfb7,80dbfb7c
32.86703,-116.89619,El Monte,ELMSD,80dbe24,80dbe21,80dbe204
32.84329,-116.88113,Rios Canyon,RIOSD,80d95f4,80d95f5,80d95f4c
32.64449,-116.34617,Tierra Del Sol,TDSSD,80d9a1c,80d9a1f,80d9a1e4
32.81154,-116.85324,Crest,CSTSD,80d95ec,80d95ef,80d95ef4
32.68839,-116.51179,Lake Morena,MORSD,80d9744,80d9741,80d97404
32.85794,-116.82188,Harbison Canyon,HARSD,80d95fc,80d95f9,80d95f94
32.8683,-116.84252,Blossom Valley,BVYSD,80d95fc,80d95f9,80d95f84
32.99948,-116.78854,Spangler Peak,SPPSD,80dbddc,80dbdd9,80dbdd8c
32.93497,-116.87588,Barona,BNASD,80dbe14,80dbe15,80dbe144
32.91264,-116.95121,San Vicente,SVCSD,80dbe34,80dbe37,80dbe36c
33.02928,-116.93516,Highland Valley,HVYSD,80dbef4,80dbef7,80dbef74
32.98626,-116.9081,Mussey Grade,MGRSD,80dbe5c,80dbe5d,80dbe5cc
33.28464,-117.01553,Cole Grade,CGDSD,80db8e4,80db8e5,80db8e4c
33.277111,-117.069299,Lilac,LLCSD,80db8ec,80db8ed,80db8ed4
32.84559,-116.70437,Viejas,VJSSD,80d9614,80d9617,80d96164
32.81324,-116.73412,Palo Verde,PVDSD,80d966c,80d966d,80d966cc
32.78356,-116.723,Carveacre,CRVSD,80d966c,80d9669,80d9668c
33.15917,-117.03133,Escondido,ESCSD,80dbf2c,80dbf2d,80dbf2d4
33.17799,-116.9947,Lake Wohlford,LKWSD,80db8d4,80db8d5,80db8d54
33.07272,-116.73794,Witch Creek,WCKSD,80dbc34,80dbc33,80dbc32c
32.94035,-116.63668,Boulder Creek,BOCSD,80dbd84,80dbd87,80dbd86c
33.16756,-116.75917,Mesa Grande,MGDSD,80dbc1c,80dbc1b,80dbc1a4
32.7008,-116.3683,Crestwood,CWDSD,80d99ec,80d99ef,80d99ef4
32.84538,-116.47192,Laguna,LAGSD,80d9794,80d9791,80d9791c
32.80849,-116.5083,Sunrise Hwy,SRHSD,80d979c,80d9799,80d9798c
32.59898,-116.49292,Campo,CPOSD,80d90b4,80d90b5,80d90b44
32.64791,-116.63145,Round Potrero,RPOSD,80d96dc,80d96d9,80d96d94
32.61225,-116.61333,West Potrero,WPTSD,80d96d4,80d96d7,80d96d64
32.68695,-116.76221,Deerhorn Valley,DHVSD,80d9684,80d9685,80d9684c
32.80554,-116.78794,Loveland,LLDSD,80d960c,80d960b,80d960ac
32.73616,-116.82239,Lawson Valley,LSVSD,80d95d4,80d95d1,80d95d14
32.78691,-116.83534,Dehesa,DEHSD,80d95dc,80d95dd,80d95dd4
33.56964,-117.51306,Ortega,ORTSD,80dc92c,80dc92f,80dc92f4
33.41921,-117.08186,Pala Temecula,PTMSD,80db814,80db815,80db815c
33.45839,-117.29735,Deluz,DLZSD,80dc874,80dc871,80dc8714
33.41892,-117.14413,Rainbow,RNBSD,80db80c,80db80f,80db80f4
33.401221,-117.170167,Rainbow Valley,RBVSD,80db80c,80db809,80db809c
33.31311,-117.08583,Keyes Creek,KCKSD,80db88c,80db88b,80db88ac
33.23996,-117.04519,Hideaway Lake,HIDSD,80db8c4,80db8c3,80db8c24
33.28779,-116.95642,Rincon,RINSD,80db91c,80db91b,80db91bc
33.24792,-116.69729,Warners,WARSD,80dbb8c,80dbb8b,80dbb8ac
33.25844,-116.58518,Los Coyotes,COYSD,80dbc84,80dbc81,80dbc81c
33.22329,-116.69879,Mataguay,MGYSD,80dbc74,80dbc75,80dbc74c
33.47412,-117.55057,Cristianitos,CRISD,80dcf34,80dcf35,80dcf34c
33.19377,-117.15301,Twins Oaks,TWOSD,80db8a4,80db8a7,80db8a6c
33.22617,-117.07559,Turner Lake,TLKSD,80db8c4,80db8c1,80db8c04
33.28556,-117.14574,Circle R,CIRSD,80db884,80db887,80db886c
33.22651,-117.09415,Hidden Meadows,HMDSD,80db8bc,80db8bf,80db8be4
33.37111,-117.07894,Pauma Valley,PAUSD,80db844,80db843,80db8424
33.0287,-116.79285,Country Estates,CESSD,80dbdd4,80dbdd7,80dbdd64
33.01561,-116.87001,Creelman,CLMSD,80dbe64,80dbe61,80dbe614
33.10461,-116.60255,Wynola,WYNSD,80dbcfc,80dbcff,80dbcffc
33.31236,-117.00349,Pauma,PMASD,80db8fc,80db8fd,80db8fc4
33.35471,-117.1672,Fallbrook,FBKSD,80db874,80db877,80db8764
33.25143,-116.95707,Rincon Res,RCRSD,80db924,80db923,80db923c
33.25614,-116.98201,Fruitvale,FTVSD,80db924,80db921,80db9204
33.073,-116.85802,Ramona,RAMSD,80dbe8c,80dbe8f,80dbe8e4
33.07452,-116.8137,Sunset Oaks,SSOSD,80dbe84,80dbe83,80dbe83c
32.72022,-116.92783,Otay,OTYSD,80d95b4,80d95b1,80d95b04
33.09856,-116.82758,Black Canyon,BLCSD,80dbe9c,80dbe9b,80dbe9bc
32.83013,-116.80397,West Alpine,WALSD,80d95e4,80d95e3,80d95e2c
40.109517,-121.3827,HUMBUG SUMMIT,HMRC1,809d3bc,809d3bd,809d3bdc
40.242119,-121.775733,PANTHER SPRINGS,PSWC1,8082afc,8082afb,8082afb4
32.66213,-116.28888,Boulevard West,BVDSD,80d9a24,80d9a27,80d9a27c
33.11312,-116.67182,Santa Ysabel North,YSASD,80dbc4c,80dbc4f,80dbc4f4
38.186161,-120.010586,PINECREST 2,PNWC1,8097484,8097483,80974834
39.371,-122.605,RAINBOW DIVERSION DAM,RBW,8083ba4,8083ba7,8083ba74
39.583,-122.533,STONY GORGE RESERVOIR,STG,8082524,8082527,8082527c
34.9606,-118.93845,WX6HNX-4 Grapevine CHP,AT714,80e9f64,80e9f67,80e9f66c
33.12255,-117.22785,DW5683 Carlsbad,D5683,80dc74c,80dc74d,80dc74d4
37.38417,-118.42283,DW5754 Bishop,D5754,80be164,80be165,80be1644
39.2031,-123.1853,NORTH COAST,CDW,80817b4,80817b5,80817b44
39.367,-123.133,Potter Valley,PVP,808181c,808181d,808181cc
34.94583,-119.682,EW0673 New Cuyama,E0673,80ebdb4,80ebdb5,80ebdb4c
40.2,-120.3,DW5697 Janesville,D5697,809c2d4,809c2d3,809c2d24
38.03417,-121.881,K6BIV Pittsburg,AT738,80855bc,80855b9,80855b94
33.523,-116.425,Toro Peak,HP003,80dbacc,80dbacd,80dbaccc
37.62553,-118.98145,DW5868 Mammoth Lakes,D5868,80960c4,80960c5,80960c44
33.74133,-118.3055,DW5942 San Pedro,D5942,80dd49c,80dd49d,80dd49dc
34.09883,-118.17315,DW5989 South Pasadena,D5989,80c2c44,80c2c45,80c2c444
36.81556,-121.74222,NERRS METEOROLOGICAL SITE AT ELKHORN SLOUGH  AT  WATSONVIILLE NEAR MOSS LANDING 3E,ELXC1,808e06c,808e06b,808e06a4
33.89167,-117.78361,W0PE-1 Yorba Linda,AT774,80dcd1c,80dcd19,80dcd184
36.802,-121.791,Moss Landing,MLSC1,808e064,808e061,808e060c
38.03,-120.42,COLUMBIA,KO22,8090c74,8090c73,8090c73c
40.746,-122.9223,Weaverville,KO54,54d251c,54d251f,54d251e4
37.933,-121.72083,DW6114 Brentwood,D6114,808ff94,808ff93,808ff934
33.30904,-116.84888,DW6178 Palomar Mountain,D6178,80db96c,80db96f,80db96f4
38.715,-120.99917,DW6184 Rescue,D6184,809afbc,809afbf,809afbec
34.234825,-117.138875,HEAPS PEAK,HHPC1,80c4a9c,80c4a9b,80c4a9bc
41.53853,-122.38724,DW6273 Weed,D6273,54ce6e4,54ce6e1,54ce6e14
41.534125,-122.209714,BOLAM,BOLC1,54ce7a4,54ce7a5,54ce7a4c
36.60417,-118.73306,WX6HNX-11 Sequoia NP,AT846,80955ec,80955ef,80955ef4
35.12422,-120.55467,DW6295 Arroyo Grande,D6295,80ec5e4,80ec5e7,80ec5e74
34.06932,-117.7494,DW6285 Pomona,D6285,80c32e4,80c32e1,80c32e0c
34.5833,-119.0758,FILLMORE VENTURA,SYCC1,80e9bf4,80e9bf1,80e9bf0c
36.20902,-121.12596,King City-415 Pearl Street,CQ210,8092f14,8092f13,8092f124
33.597,-117.088,French Valley,SDFRV,80db7c4,80db7c7,80db7c7c
33.455,-117.232,De Luz,SDDUZ,80dc80c,80dc809,80dc8084
36.9651,-121.88894,DW6358 Aptos,D6358,808e16c,808e169,808e168c
33.79533,-118.095,DW6368 Long Beach,D6368,80dd2e4,80dd2e3,80dd2e3c
37.89308,-122.27973,DW6436 Berkeley,D6436,8085794,8085795,8085794c
38.54,-121.69,DW6572 El Macero,D6572,80852bc,80852b9,80852b94
37.53471,-122.33982,DW6483 Hillsborough,D6483,808f9e4,808f9e3,808f9e34
33.88917,-117.8165,DW6637 Yorba Linda,D6637,80dcd3c,80dcd3f,80dcd3e4
38.65888,-121.77475,DW6707 Woodland,D6707,8084d0c,8084d0d,8084d0d4
32.7663,-117.01335,DW5256 La Mesa,D5256,80d9574,80d9573,80d9573c
34.49917,-119.81783,N6TVE-11 San Marcos Pass,AT923,80e941c,80e9419,80e94194
38.57467,-122.4427,KF6GTX Angwin,AT925,8084594,8084597,80845964
37.937,-122.3145,DW6785 El Cerrito,D6785,8085784,8085785,8085784c
38.70833,-121.34133,DW6835 Antelope,D6835,809b20c,809b20b,809b20a4
38.474847,-122.2648,ATLAS PEAK,ATLC1,8084fc4,8084fc3,8084fc24
34.16367,-118.26683,DW6894 Glendale,D6894,80c2c04,80c2c05,80c2c044
33.86167,-118.38217,DW6901 Redondo Beach,D6901,80c2b4c,80c2b49,80c2b484
34.9,-120.2,DW6942 Santa Maria,D6942,80ec0a4,80ec0a3,80ec0a2c
32.7005,-117.01867,DW7030 Spring Valley,D7030,80d9504,80d9505,80d9505c
37.91333,-122.54833,DW7094 Mill Valley,D7094,8085904,8085907,8085907c
33.74934,-118.39233,DW7121 Rancho Palos Verdes,D7121,80dd4bc,80dd4bf,80dd4bfc
33.06417,-117.239,DW7100 Carlsbad,D7100,80dc0bc,80dc0bb,80dc0ba4
37.35904,-119.68069,DW7171 Oakhurst,D7171,80969dc,80969dd,80969dc4
32.5564,-117.0617,SAN YSIDRO SAN DIEGO,YSDC1,80d9494,80d9495,80d94944
39.10431,-120.97606,WB6EEQ Colfax,AT999,809b0b4,809b0b5,809b0b44
34.151,-117.63333,DW7259 Rancho Cucamonga,D7259,80c3374,80c3373,80c33734
33.94706,-118.04282,DW7261 Whittier,D7261,80c2d34,80c2d31,80c2d30c
34.445,-119.625833,MONTECITO #2,MOIC1,80e9124,80e9127,80e91264
37.91367,-122.35467,DW7213 Richmond,D7213,8085784,8085787,8085787c
38.87967,-121.0725,DW7393 Auburn,D7393,809b04c,809b04b,809b04b4
38.6825,-121.0115,DW7401 El Dorado Hills,D7401,809afa4,809afa5,809afa4c
34.38821,-119.07166,DW7412 Santa Paula,D7412,80e9b64,80e9b67,80e9b674
38.67875,-121.04646,DW7413 El Dorado Hills,D7413,809afac,809afaf,809afae4
39.15111,-123.20667,Ukiah-County Library,CQ213,808164c,808164f,808164fc
38.69625,-119.575,NRAWS 13,NCRC1,8099d0c,8099d0d,8099d0c4
37.74349,-120.93362,DW7479 Riverbank,D7479,809057c,8090579,8090579c
33.73381,-117.4295,DW7531 Corona,D7531,80dcbdc,80dcbd9,80dcbd8c
38.54864,-121.40486,W6TGS Sacramento,AU088,809adac,809adad,809adadc
33.5875,-117.24667,DW7608 Wildomar,D7608,80dc834,80dc837,80dc836c
34.33333,-118.02583,CHILAO FIRE STN#3320 ANGELES NF NEAR MONROVIA 16N,CHFC1,80c2e44,80c2e41,80c2e404
34.3175,-117.84194,CRYSTAL LAKE #3324 NEAR GLENDORA 15N,CRAC1,80c31f4,80c31f3,80c31f34
33.71167,-118.0325,DW7637 Huntington Beach,D7637,80dd25c,80dd25d,80dd25cc
34.03167,-118.05389,BASEYARD - SOUTH EL MONTE #3302 NEAR EL MONTE 7SE,BSEC1,80c2d14,80c2d11,80c2d104
37.29367,-119.63467,DW7778 Coarsegold,D7778,8094264,8094265,80942644
34.455886,-119.705628,SB BOTANIC GARDEN,SBVC1,80e914c,80e914b,80e914ac
37.93714,-122.01478,KJ6APE Walnut Creek,AU128,808560c,8085609,8085608c
40.60983,-122.48983,KB6KY Shasta,AU138,54d2f24,54d2f23,54d2f23c
37.78217,-122.47133,DW8008 San Francisco,D8008,8085874,8085871,80858714
37.654864,-121.823289,LIVERMORE FIRE DEPARTMENT,LVFC1,808fe84,808fe81,808fe81c
33.3925,-117.255,Avocado,AVOSD,80dc7ec,80dc7e9,80dc7e8c
32.76188,-116.48866,Buckman Springs,BMSSD,80d9774,80d9771,80d97714
32.6011,-116.686,Barrett Junction,BRJSD,80d96cc,80d96c9,80d96c94
33.301305,-116.912993,Cuca Ranch,CCRSD,80db914,80db913,80db913c
32.615,-116.758,Dulzura,DZRSD,80d96a4,80d96a5,80d96a4c
32.8552,-116.574,Guatay,GTYSD,80d97cc,80d97c9,80d97c9c
32.7138,-116.404,La Posta,LPTSD,80d99e4,80d99e1,80d99e0c
32.77432,-117.10854,DW3640 San Diego,D3640,80d955c,80d955b,80d955b4
33.9,-117.9,DW7928 Fullerton,D7928,80dcd5c,80dcd5b,80dcd5a4
32.646,-116.497,Cameron Corners,CMCSD,80d974c,80d9749,80d97494
33.0396,-116.561,Harrison Park,HRPSD,80dbd0c,80dbd0d,80dbd0dc
32.99742,-116.59487,Lake Cuyamaca,LCMSD,80dbd74,80dbd75,80dbd744
32.9331,-116.528,Lucky Five Ranch,LFRSD,80d97dc,80d97df,80d97dec
33.3222,-116.962,Nate Harrison Grade,NHGSD,80db904,80db903,80db903c
32.5993,-116.843,Otay Mountain,OTMSD,80d941c,80d941b,80d941a4
32.6339,-116.423,Shockey Truck Trail,STTSD,80d9754,80d9755,80d97554
32.7208,-116.702,Skye Valley,SVLSD,80d96f4,80d96f5,80d96f4c
32.8495,-116.63,West Descanso,WDCSD,80d9634,80d9635,80d96344
33.0311,-117.122,West Rancho Bernardo,WRBSD,80dbf6c,80dbf6f,80dbf6f4
33.0868,-116.69,West Santa Ysabel,WSYSD,80dbc4c,80dbc4b,80dbc4bc
38.854453,-120.024283,BARON,RWBC1,80998c4,80998c3,80998c2c
35.60299,-117.69724,W6BST Ridgecrest,AU149,80c16d4,80c16d1,80c16d1c
39.77017,-121.84317,DW8132 Chico,D8132,8082d84,8082d87,8082d86c
33.3871,-116.687,Chihuahua Valley,CHHSD,80dbbb4,80dbbb7,80dbbb6c
32.7829,-116.55,Corte Madera,CTMSD,80d97a4,80d97a7,80d97a64
33.2265,-116.612,East Warners,EWNSD,80dbc7c,80dbc7d,80dbc7d4
33.0439,-117.135,Hodges Dam,HDMSD,80dbf64,80dbf67,80dbf664
32.98037,-116.66323,North Boulder Creek,NBCSD,80dbd94,80dbd97,80dbd974
32.8832,-116.647,North Descanso,NDCSD,80d962c,80d962f,80d962fc
32.6298,-116.585,North Potrero,NPTSD,80d972c,80d9729,80d9728c
33.1371,-116.294,Narrows,NRWSD,80da2e4,80da2e5,80da2e44
33.0801,-117.13,Olivenhain,OLVSD,80dbf5c,80dbf5b,80dbf5b4
33.344,-116.732,Sunshine Summit,SSSSD,80dbbc4,80dbbc5,80dbbc44
33.1322,-116.686,Santa Ysabel Ranch,SYRSD,80dbc44,80dbc47,80dbc46c
32.732,-116.762,Wisecarver,WCVSD,80d967c,80d967d,80d967dc
33.1057,-116.654,West Wynola,WWYSD,80dbc54,80dbc51,80dbc51c
35.80265,-120.10302,WX6HNX-10 Sunflower Valley,AU172,80eb574,80eb577,80eb577c
37.12883,-121.953,DW7894 Los Gatos,D7894,808e384,808e383,808e3834
37.08517,-120.84073,DW8205 Los Banos,D8205,80917ec,80917ed,80917ed4
35.12567,-118.47417,DW8220 Tehachapi,D8220,80c1f7c,80c1f7f,80c1f7ec
37.92917,-122.3455,DW8239 Richmond,D8239,8085784,8085781,8085780c
39.21577,-121.02448,DW8321 Grass Valley,D8321,809b70c,809b70f,809b70fc
35.1499,-119.4296,WX6HNX-12 Taft,AU202,80ebcac,80ebcad,80ebcadc
35.30161,-118.00161,WX6HNX-13 Jawbone Cyn,AU205,80c1814,80c1815,80c1815c
34.04217,-117.01617,DW8313 Yucaipa,D8313,80db51c,80db51b,80db51b4
33.4,-117.19,Red Mountain,HP007,80dc7f4,80dc7f7,80dc7f6c
37.5805,-122.3155,N6OL San Mateo,AU221,808f9dc,808f9dd,808f9dd4
33.1475,-117.06536,W6NWF Escondido,AU219,80dbf34,80dbf35,80dbf34c
37.25933,-121.89533,DW8509 San Jose,D8509,808e33c,808e33f,808e33f4
37.8,-122.3,DW8533 Alameda,D8533,808f80c,808f809,808f8084
36.8205,-121.3765,DW8586 Hollister,D8586,80921dc,80921dd,80921dcc
33.262,-116.3481,Borrego,BRGSD,80da344,80da343,80da343c
32.81417,-117.24086,Mt. Soledad,MSDSD,80dc01c,80dc01b,80dc01a4
32.78141,-117.13757,Mission Valley North,MVNSD,80d9554,80d9551,80d9550c
32.964,-117.223,Del Mar Heights,DMHSD,80dc08c,80dc089,80dc088c
34.08017,-117.37967,KB6HGN Rialto,AU239,80c34d4,80c34d5,80c34d4c
38.83033,-122.5345,DW8561 Middletown-Jerusalem Grade,D8561,80847ac,80847a9,80847a84
37.05476,-121.95251,DW8700 Soquel,D8700,808e3f4,808e3f3,808e3f24
